{"data":[{"uso":1,"lng":7.2632,"uwi":1,"name":"Abuja-Nnamdi Azikiwe International","icao":"DNAA","land":"Nigeria","id":"ABV","region":"af","nameshort":"Abuja","lat":9.0068,"regionorg":"Nord-Afrika"},{"lng":-13.6052,"uwi":0,"sostart":"2024-03-31T00:00:00+0100","nameshort":"Lanzarote","uso":1,"soend":"2024-10-27T00:00:00+0200","name":"Lanzarote-Arrecife","icao":"GCRR","land":"Spain","id":"ACE","region":"eu","lat":28.9455,"regionorg":"Süd-Europa"},{"uso":3,"lng":27.153,"uwi":3,"name":"Izmir-Adnan Menderes","icao":"LTBJ","land":"Turkey","id":"ADB","region":"eu","nameshort":"Izmir Adnan Menderes","lat":38.2868,"regionorg":"Süd-Europa"},{"uso":3,"lng":38.7994,"uwi":3,"name":"Addis Ababa-Bole International","icao":"HAAB","land":"Ethiopia","id":"ADD","region":"af","nameshort":"Addis Ababa","lat":8.9778,"regionorg":"Ost-Afrika"},{"uso":1,"lng":-9.4131,"uwi":1,"name":"Agadir-Al Massira","icao":"GMAD","land":"Morocco","id":"AGA","region":"af","nameshort":"Agadir","lat":30.325,"regionorg":"West-Afrika"},{"lng":-4.4991,"uwi":1,"sostart":"2024-03-31T00:00:00+0100","nameshort":"Malaga","uso":2,"soend":"2024-10-27T00:00:00+0200","name":"Málaga-Costa del Sol","icao":"LEMG","land":"Spain","id":"AGP","region":"eu","lat":36.6749,"regionorg":"Süd-Europa"},{"uso":2,"uwi":1,"sostart":"2024-03-31T00:00:00+0100","soend":"2024-10-27T00:00:00+0200","name":"Augsburg Central Railway Station","icao":"","land":"Germany","id":"AGY","region":"de","nameshort":"Augsburg Central St.","regionorg":"Nord-Europa"},{"lng":19.2819,"uwi":1,"sostart":"2024-03-31T00:00:00+0100","nameshort":"Arvidsjaur","uso":2,"soend":"2024-10-27T00:00:00+0200","name":"Arvidsjaur","icao":"ESNX","land":"Sweden","id":"AJR","region":"eu","lat":65.5903,"regionorg":"Nord-Europa"},{"uso":5,"lng":77.0405,"uwi":5,"name":"Almaty International Airport","icao":"UAAA","land":"Kazakhstan","id":"ALA","region":"eu","nameshort":"Almaty","lat":43.3521,"regionorg":"Russland"},{"lng":-0.5582,"uwi":1,"sostart":"2024-03-31T00:00:00+0100","nameshort":"Alicante","uso":2,"soend":"2024-10-27T00:00:00+0200","name":"Alicante","icao":"LEAL","land":"Spain","id":"ALC","region":"eu","lat":38.2822,"regionorg":"Süd-Europa"},{"lng":23.3717,"uwi":1,"sostart":"2024-03-31T00:00:00+0100","nameshort":"Alta","uso":2,"soend":"2024-10-27T00:00:00+0200","name":"Alta","icao":"ENAT","land":"Norway","id":"ALF","region":"eu","lat":69.9761,"regionorg":"Nord-Europa"},{"uso":1,"lng":3.2154,"uwi":1,"name":"Algiers-Houari Boumediene","icao":"DAAG","land":"Algeria","id":"ALG","region":"af","nameshort":"Algiers","lat":36.691,"regionorg":"Nord-Afrika"},{"lng":35.9932,"uwi":2,"sostart":"2024-02-22T00:00:00+0100","nameshort":"Amman-Queen Alia","uso":3,"soend":"2024-10-24T00:00:00+0200","name":"Amman-Queen Alia International","icao":"OJAI","land":"Jordan","id":"AMM","region":"as","lat":31.7226,"regionorg":"Vorder-Asien"},{"lng":4.7639,"uwi":1,"sostart":"2024-03-31T00:00:00+0100","nameshort":"Amsterdam","uso":2,"soend":"2024-10-27T00:00:00+0200","name":"Amsterdam-Schiphol","icao":"EHAM","land":"Netherlands","id":"AMS","region":"eu","lat":52.3086,"regionorg":"Nord-Europa"},{"lng":-149.996,"uwi":-9,"sostart":"2024-03-10T00:00:00+0100","nameshort":"Anchorage","uso":-8,"soend":"2024-11-03T00:00:00+0100","name":"Anchorage","icao":"PANC","land":"United States","id":"ANC","region":"am","lat":61.1744,"regionorg":"Nord-Amerika II"},{"lng":4.4603,"uwi":1,"sostart":"2025-03-30T00:00:00+0100","nameshort":"Antwerp","uso":2,"soend":"2025-10-26T00:00:00+0200","name":"Antwerp International","icao":"EBAW","land":"Belgium","id":"ANR","region":"eu","lat":51.1894,"regionorg":"Nord-Europa"},{"uso":-4,"lng":-61.7927,"uwi":-4,"name":"Antigua-V.C. Bird International","icao":"TAPA","land":"Antigua and Barbuda","id":"ANU","region":"am","nameshort":"Antigua","lat":17.1367,"regionorg":"Karibik"},{"lng":17.9186,"uwi":1,"sostart":"2024-03-31T00:00:00+0100","nameshort":"Stockholm-Arlanda","uso":2,"soend":"2024-10-27T00:00:00+0200","name":"Stockholm-Arlanda","icao":"ESSA","land":"Sweden","id":"ARN","region":"eu","lat":59.6519,"regionorg":"Nord-Europa"},{"uso":5,"lng":58.361,"uwi":5,"name":"Ashgabat-Saparmurat Turkmenbashy Internationa","icao":"UTAA","land":"Turkmenistan","id":"ASB","region":"eu","nameshort":"Ashgabat","lat":37.9868,"regionorg":"Russland"},{"uso":3,"lng":35.4954,"uwi":3,"name":"Kayseri-Erkilet","icao":"LTAU","land":"Turkey","id":"ASR","region":"eu","nameshort":"Kayseri","lat":38.7704,"regionorg":"Süd-Europa"},{"lng":23.9445,"uwi":2,"sostart":"2024-03-31T00:00:00+0100","nameshort":"Athens","uso":3,"soend":"2024-10-27T00:00:00+0200","name":"Athen-Eleftherios Venizelos","icao":"LGAV","land":"Greece","id":"ATH","region":"eu","lat":37.9364,"regionorg":"Süd-Europa"},{"lng":-84.4281,"uwi":-5,"sostart":"2024-03-10T00:00:00+0100","nameshort":"Atlanta","uso":-4,"soend":"2024-11-03T00:00:00+0100","name":"Atlanta-Hartsfield-Jackson International","icao":"KATL","land":"United States","id":"ATL","region":"am","lat":33.6367,"regionorg":"Nord-Amerika II"},{"uso":4,"lng":54.6511,"uwi":4,"name":"Abu Dhabi-International","icao":"OMAA","land":"United Arab Emirates","id":"AUH","region":"as","nameshort":"Abu Dhabi","lat":24.433,"regionorg":"Vorder-Asien"},{"lng":-97.6699,"uwi":-6,"sostart":"2024-03-10T00:00:00+0100","nameshort":"Austin-Bergstrom","uso":-5,"soend":"2024-11-03T00:00:00+0100","name":"Austin-Bergstrom International Airport","icao":"KAUS","land":"United States","id":"AUS","region":"am","lat":30.1945,"regionorg":"Nord-Amerika II"},{"uso":3,"lng":30.8005,"uwi":3,"name":"Antalya","icao":"LTAI","land":"Turkey","id":"AYT","region":"eu","nameshort":"Antalya","lat":36.8987,"regionorg":"Süd-Europa"},{"uso":3,"lng":50.6336,"uwi":3,"name":"Bahrain-International","icao":"OBBI","land":"Bahrain","id":"BAH","region":"as","nameshort":"Bahrain","lat":26.2708,"regionorg":"Vorder-Asien"},{"lng":2.0785,"uwi":1,"sostart":"2024-03-31T00:00:00+0100","nameshort":"Barcelona","uso":2,"soend":"2024-10-27T00:00:00+0200","name":"Barcelona","icao":"LEBL","land":"Spain","id":"BCN","region":"eu","lat":41.2971,"regionorg":"Süd-Europa"},{"lng":20.3091,"uwi":1,"sostart":"2024-03-31T00:00:00+0100","nameshort":"Belgrad Nikola Tesla","uso":2,"soend":"2024-10-27T00:00:00+0200","name":"Belgrade Nikola Tesla","icao":"LYBE","land":"Serbia","id":"BEG","region":"eu","lat":44.8184,"regionorg":"Süd-Europa"},{"lng":13.4939,"uwi":1,"sostart":"2024-03-31T00:00:00+0100","nameshort":"Berlin-Brandenburg","uso":2,"soend":"2024-10-27T00:00:00+0200","name":"Berlin Brandenburg Airport Willy Brandt","icao":"EDDB","land":"Germany","id":"BER","region":"de","lat":52.3514,"regionorg":"Nord-Europa"},{"lng":35.4884,"uwi":2,"sostart":"2024-03-30T00:00:00+0100","nameshort":"Beirut","uso":3,"soend":"2024-10-26T00:00:00+0200","name":"Beirut-Rafic Hariri International","icao":"OLBA","land":"Lebanon","id":"BEY","region":"as","lat":33.8209,"regionorg":"Vorder-Asien"},{"uso":-4,"lng":-59.4925,"uwi":-4,"name":"Bridgetown-Grantley Adams Intl Barbados","icao":"TBPB","land":"Barbados","id":"BGI","region":"am","nameshort":"Barbados-Bridgetown","lat":13.0746,"regionorg":"Karibik"},{"lng":5.2181,"uwi":1,"sostart":"2024-03-31T00:00:00+0100","nameshort":"Bergen","uso":2,"soend":"2024-10-27T00:00:00+0200","name":"Bergen-Flesland","icao":"ENBR","land":"Norway","id":"BGO","region":"eu","lat":60.2934,"regionorg":"Nord-Europa"},{"lng":9.6995,"uwi":1,"sostart":"2024-03-31T00:00:00+0100","nameshort":"Bergamo","uso":2,"soend":"2024-10-27T00:00:00+0200","name":"Bergamo-Orio Al Serio","icao":"LIME","land":"Italy","id":"BGY","region":"eu","lat":45.6655,"regionorg":"Süd-Europa"},{"lng":-5.8725,"uwi":0,"sostart":"2024-03-31T00:00:00+0100","nameshort":"Belfast City Airport","uso":1,"soend":"2024-10-27T00:00:00+0200","name":"Belfast-George Best City Airport","icao":"EGAC","land":"Great Britain","id":"BHD","region":"eu","lat":54.6181,"regionorg":"Nord-Europa"},{"lng":-1.748,"uwi":0,"sostart":"2024-03-31T00:00:00+0100","nameshort":"Birmingham","uso":1,"soend":"2024-10-27T00:00:00+0200","name":"Birmingham","icao":"EGBB","land":"Great Britain","id":"BHX","region":"eu","lat":52.4539,"regionorg":"Nord-Europa"},{"lng":9.4837,"uwi":1,"sostart":"2024-03-31T00:00:00+0100","nameshort":"Bastia","uso":2,"soend":"2024-10-27T00:00:00+0200","name":"Bastia-Poretta","icao":"LFKB","land":"France","id":"BIA","region":"eu","lat":42.5527,"regionorg":"Süd-Europa"},{"lng":-2.9106,"uwi":1,"sostart":"2024-03-31T00:00:00+0100","nameshort":"Bilbao","uso":2,"soend":"2024-10-27T00:00:00+0200","name":"Bilbao","icao":"LEBB","land":"Spain","id":"BIO","region":"eu","lat":43.3011,"regionorg":"Süd-Europa"},{"uso":0,"lng":-16.6522,"uwi":0,"name":"Banjul-International","icao":"GBYD","land":"Gambia","id":"BJL","region":"af","nameshort":"Banjul","lat":13.338,"regionorg":"West-Afrika"},{"uso":3,"lng":27.6643,"uwi":3,"name":"Bodrum-Milas","icao":"LTFE","land":"Turkey","id":"BJV","region":"eu","nameshort":"Bodrum","lat":37.2506,"regionorg":"Süd-Europa"},{"uso":7,"lng":100.747,"uwi":7,"name":"Bangkok-Suvarnabhumi International","icao":"VTBS","land":"Thailand","id":"BKK","region":"as","nameshort":"Bangkok-Suvarnabhumi","lat":13.6811,"regionorg":"Zentral-Asien"},{"lng":9.1518,"uwi":1,"sostart":"2024-03-31T00:00:00+0100","nameshort":"Billund","uso":2,"soend":"2024-10-27T00:00:00+0200","name":"Billund","icao":"EKBI","land":"Denmark","id":"BLL","region":"eu","lat":55.7403,"regionorg":"Nord-Europa"},{"lng":11.2887,"uwi":1,"sostart":"2024-03-31T00:00:00+0100","nameshort":"Bologna","uso":2,"soend":"2024-10-27T00:00:00+0200","name":"Bologna-Guglielmo Marconi","icao":"LIPE","land":"Italy","id":"BLQ","region":"eu","lat":44.5354,"regionorg":"Süd-Europa"},{"uso":5.5,"lng":77.7063,"uwi":5.5,"name":"Bangalore-Bengaluru International","icao":"VOBL","land":"India","id":"BLR","region":"as","nameshort":"Bangalore","lat":13.1979,"regionorg":"Zentral-Asien"},{"lng":-0.7156,"uwi":1,"sostart":"2024-03-31T00:00:00+0100","nameshort":"Bordeaux","uso":2,"soend":"2024-10-27T00:00:00+0200","name":"Bordeaux-Merignac","icao":"LFBD","land":"France","id":"BOD","region":"eu","lat":44.8283,"regionorg":"Süd-Europa"},{"uso":-5,"lng":-74.1469,"uwi":-5,"name":"Bogota-El Dorado International","icao":"SKBO","land":"Colombia","id":"BOG","region":"am","nameshort":"Bogota","lat":4.7016,"regionorg":"Süd-Amerika"},{"lng":27.5152,"uwi":2,"sostart":"2025-03-30T00:00:00+0100","nameshort":"Bourgas","uso":3,"soend":"2025-10-26T00:00:00+0200","name":"Bourgas","icao":"LBBG","land":"Bulgaria","id":"BOJ","region":"eu","lat":42.5696,"regionorg":"Süd-Europa"},{"uso":5.5,"lng":72.8679,"uwi":5.5,"name":"Mumbai-Chhatrapati Shivaji International","icao":"VABB","land":"India","id":"BOM","region":"as","nameshort":"Mumbai","lat":19.0887,"regionorg":"Zentral-Asien"},{"lng":-71.0052,"uwi":-5,"sostart":"2024-03-10T00:00:00+0100","nameshort":"Boston","uso":-4,"soend":"2024-11-03T00:00:00+0100","name":"Boston","icao":"KBOS","land":"United States","id":"BOS","region":"am","lat":42.3643,"regionorg":"Nord-Amerika II"},{"lng":8.7867,"uwi":1,"sostart":"2024-03-31T00:00:00+0100","nameshort":"Bremen","uso":2,"soend":"2024-10-27T00:00:00+0200","name":"Bremen","icao":"EDDW","land":"Germany","id":"BRE","region":"de","lat":53.0475,"regionorg":"Nord-Europa"},{"lng":16.7606,"uwi":1,"sostart":"2024-03-31T00:00:00+0100","nameshort":"Bari","uso":2,"soend":"2024-10-27T00:00:00+0200","name":"Bari-Karol Wojtyla","icao":"LIBD","land":"Italy","id":"BRI","region":"eu","lat":41.1389,"regionorg":"Süd-Europa"},{"lng":4.4844,"uwi":1,"sostart":"2025-03-30T00:00:00+0100","nameshort":"Brussels","uso":2,"soend":"2025-10-26T00:00:00+0200","name":"Brussels","icao":"EBBR","land":"Belgium","id":"BRU","region":"eu","lat":50.9014,"regionorg":"Nord-Europa"},{"lng":7.5292,"uwi":1,"sostart":"2024-03-31T00:00:00+0100","nameshort":"Basel","uso":2,"soend":"2024-10-27T00:00:00+0200","name":"Basel-Mulhouse EuroAirport Swiss","icao":"LFSB","land":"Switzerland","id":"BSL","region":"eu","lat":47.59,"regionorg":"Süd-Europa"},{"lng":19.2611,"uwi":1,"sostart":"2024-03-31T00:00:00+0100","nameshort":"Budapest","uso":2,"soend":"2024-10-27T00:00:00+0200","name":"Budapest-Liszt Ferenc International","icao":"LHBP","land":"Hungary","id":"BUD","region":"eu","lat":47.4298,"regionorg":"Süd-Europa"},{"uso":-1,"lng":-22.8889,"uwi":-1,"name":"Boa Vista-Aristides Pereira International","icao":"GVBA","land":"Cape Verde","id":"BVC","region":"af","nameshort":"Boa Vista","lat":16.1365,"regionorg":"West-Afrika"},{"lng":10.5561,"uwi":1,"sostart":"2024-03-31T00:00:00+0100","nameshort":"Braunschweig","uso":2,"soend":"2024-10-27T00:00:00+0200","name":"Braunschweig/Wolfsburg","icao":"EDVE","land":"Germany","id":"BWE","region":"de","lat":52.3192,"regionorg":"Nord-Europa"},{"lng":17.9777,"uwi":1,"sostart":"2024-03-31T00:00:00+0100","nameshort":"Bydgoszcz","uso":2,"soend":"2024-10-27T00:00:00+0200","name":"Bydgoszcz-Ignacy Jan Paderewski","icao":"EPBY","land":"Poland","id":"BZG","region":"eu","lat":53.0968,"regionorg":"Nord-Europa"},{"lng":9.0543,"uwi":1,"sostart":"2024-03-31T00:00:00+0100","nameshort":"Cagliari","uso":2,"soend":"2024-10-27T00:00:00+0200","name":"Cagliari-Elmas","icao":"LIEE","land":"Italy","id":"CAG","region":"eu","lat":39.2515,"regionorg":"Süd-Europa"},{"uso":2,"lng":31.4056,"uwi":2,"name":"Cairo-International","icao":"HECA","land":"Egypt","id":"CAI","region":"af","nameshort":"Cairo","lat":30.1219,"regionorg":"Ost-Afrika"},{"uso":8,"lng":113.299,"uwi":8,"name":"Guangzhou-Baiyun International","icao":"ZGGG","land":"China","id":"CAN","region":"as","nameshort":"Guangzhou","lat":23.3924,"regionorg":"China"},{"lng":2.5478,"uwi":1,"sostart":"2024-03-31T00:00:00+0100","nameshort":"Paris Ch. de Gaulle","uso":2,"soend":"2024-10-27T00:00:00+0200","name":"Paris Charles de Gaulle","icao":"LFPG","land":"France","id":"CDG","region":"eu","lat":49.0097,"regionorg":"Süd-Europa"},{"lng":6.9535,"uwi":1,"sostart":"2024-03-31T00:00:00+0100","nameshort":"Cannes","uso":2,"soend":"2024-10-27T00:00:00+0200","name":"Cannes-Mandelieu","icao":"LFMD","land":"France","id":"CEQ","region":"eu","lat":43.542,"regionorg":"Süd-Europa"},{"lng":3.1692,"uwi":1,"sostart":"2024-03-31T00:00:00+0100","nameshort":"Clermont-Ferrand","uso":2,"soend":"2024-10-27T00:00:00+0200","name":"Clermont-Ferrand-Auvergne","icao":"LFLC","land":"France","id":"CFE","region":"eu","lat":45.7867,"regionorg":"Süd-Europa"},{"lng":19.9117,"uwi":2,"sostart":"2024-03-31T00:00:00+0100","nameshort":"Corfu/Kerkyra","uso":3,"soend":"2024-10-27T00:00:00+0200","name":"Corfu/Kerkyra Ioannis Kapodistrias","icao":"LGKR","land":"Greece","id":"CFU","region":"eu","lat":39.6019,"regionorg":"Süd-Europa"},{"lng":7.1427,"uwi":1,"sostart":"2024-03-31T00:00:00+0100","nameshort":"Cologne/Bonn","uso":2,"soend":"2024-10-27T00:00:00+0200","name":"Cologne/Bonn","icao":"EDDK","land":"Germany","id":"CGN","region":"de","lat":50.8659,"regionorg":"Nord-Europa"},{"uso":8,"lng":113.841,"uwi":8,"name":"Zhengzhou-Xinzheng International","icao":"ZHCC","land":"China","id":"CGO","region":"as","nameshort":"Zhengzhou","lat":34.5197,"regionorg":"China"},{"lng":24.1497,"uwi":2,"sostart":"2024-03-31T00:00:00+0100","nameshort":"Chania","uso":3,"soend":"2024-10-27T00:00:00+0200","name":"Chania-International","icao":"LGSA","land":"Greece","id":"CHQ","region":"eu","lat":35.5317,"regionorg":"Süd-Europa"},{"uso":8,"lng":106.642,"uwi":8,"name":"Chongqing-Jiangbei International","icao":"ZUCK","land":"China","id":"CKG","region":"as","nameshort":"Chongqing","lat":29.7192,"regionorg":"China"},{"lng":-80.9431,"uwi":-5,"sostart":"2024-03-10T00:00:00+0100","nameshort":"Charlotte","uso":-4,"soend":"2024-11-03T00:00:00+0100","name":"Charlotte-Douglas International","icao":"KCLT","land":"United States","id":"CLT","region":"am","lat":35.214,"regionorg":"Nord-Amerika II"},{"uso":5.5,"lng":79.8841,"uwi":5.5,"name":"Colombo-Bandaranaike International","icao":"VCBI","land":"Sri Lanka","id":"CMB","region":"as","nameshort":"Colombo","lat":7.1808,"regionorg":"Zentral-Asien"},{"uso":1,"lng":-7.59,"uwi":1,"name":"Casablanca-Mohammed V International","icao":"GMMN","land":"Morocco","id":"CMN","region":"af","nameshort":"Casablanca","lat":33.3675,"regionorg":"West-Afrika"},{"uso":3,"lng":35.0675,"uwi":3,"name":"Cukurova","icao":"LTDB","land":"Turkey","id":"COV","region":"eu","nameshort":"Cukurova","lat":36.8969,"regionorg":"Süd-Europa"},{"lng":12.656,"uwi":1,"sostart":"2024-03-31T00:00:00+0100","nameshort":"Copenhagen-Kastrup","uso":2,"soend":"2024-10-27T00:00:00+0200","name":"Copenhagen-Kastrup","icao":"EKCH","land":"Denmark","id":"CPH","region":"eu","lat":55.6179,"regionorg":"Nord-Europa"},{"uso":2,"lng":18.6017,"uwi":2,"name":"Cape Town-International","icao":"FACT","land":"South Africa","id":"CPT","region":"af","nameshort":"Cape Town","lat":-33.9648,"regionorg":"Süd-Afrika"},{"lng":15.0664,"uwi":1,"sostart":"2024-03-31T00:00:00+0100","nameshort":"Catania","uso":2,"soend":"2024-10-27T00:00:00+0200","name":"Catania-Fontanarossa","icao":"LICC","land":"Italy","id":"CTA","region":"eu","lat":37.4668,"regionorg":"Süd-Europa"},{"uso":9,"uwi":9,"name":"Sapporo-New Chitose","icao":"RJCC","land":"Japan","id":"CTS","region":"as","nameshort":"Sapporo","regionorg":"Ost-Asien"},{"uso":8,"lng":103.947,"uwi":8,"name":"Chengdu-Shuangliu International","icao":"ZUUU","land":"China","id":"CTU","region":"as","nameshort":"Chengdu","lat":30.5785,"regionorg":"China"},{"uso":-5,"lng":-86.8771,"uwi":-5,"name":"Cancun-International","icao":"MMUN","land":"Mexico","id":"CUN","region":"am","nameshort":"Cancun","lat":21.0365,"regionorg":"Mittel-Amerika"},{"uso":-3,"lng":-49.1758,"uwi":-3,"name":"Curitiba-Afonso Pena International","icao":"SBCT","land":"Brazil","id":"CWB","region":"am","nameshort":"Curitiba","lat":-25.5285,"regionorg":"Süd-Amerika"},{"lng":18.2682,"uwi":1,"sostart":"2024-03-31T00:00:00+0100","nameshort":"Dubrovnik","uso":2,"soend":"2024-10-27T00:00:00+0200","name":"Dubrovnik","icao":"LDDU","land":"Croatia","id":"DBV","region":"eu","lat":42.5614,"regionorg":"Süd-Europa"},{"lng":21.6153,"uwi":1,"sostart":"2024-03-31T00:00:00+0100","nameshort":"Debrecen","uso":2,"soend":"2024-10-27T00:00:00+0200","name":"Debrecen-International","icao":"LHDC","land":"Hungary","id":"DEB","region":"eu","lat":47.4889,"regionorg":"Süd-Europa"},{"uso":5.5,"lng":77.1031,"uwi":5.5,"name":"Delhi-Indira Gandhi International","icao":"VIDP","land":"India","id":"DEL","region":"as","nameshort":"Delhi","lat":28.5665,"regionorg":"Zentral-Asien"},{"lng":-104.673,"uwi":-7,"sostart":"2024-03-10T00:00:00+0100","nameshort":"Denver","uso":-6,"soend":"2024-11-03T00:00:00+0100","name":"Denver","icao":"KDEN","land":"United States","id":"DEN","region":"am","lat":39.8617,"regionorg":"Nord-Amerika II"},{"lng":-97.038,"uwi":-6,"sostart":"2024-03-10T00:00:00+0100","nameshort":"Dallas-Fort Worth","uso":-5,"soend":"2024-11-03T00:00:00+0100","name":"Dallas-Fort Worth International","icao":"KDFW","land":"United States","id":"DFW","region":"am","lat":32.8968,"regionorg":"Nord-Amerika II"},{"uso":1,"uwi":0,"sostart":"2024-03-31T00:00:00+0100","soend":"2024-10-27T00:00:00+0200","name":"St. Athan","icao":"EGSY","land":"Great Britain","id":"DGX","region":"eu","nameshort":"St. Athan","regionorg":"Nord-Europa"},{"uso":2,"uwi":1,"sostart":"2024-03-31T00:00:00+0100","soend":"2024-10-27T00:00:00+0200","name":"Bremen Main Station","icao":"","land":"Germany","id":"DHC","region":"de","nameshort":"Bremen Main Station","regionorg":"Nord-Europa"},{"uso":3,"lng":40.201,"uwi":3,"name":"Diyarbakir","icao":"LTCC","land":"Turkey","id":"DIY","region":"eu","nameshort":"Diyarbakir","lat":37.8939,"regionorg":"Süd-Europa"},{"uso":1,"lng":10.7755,"uwi":1,"name":"Djerba-Zarzis International","icao":"DTTJ","land":"Tunisia","id":"DJE","region":"af","nameshort":"Djerba","lat":33.875,"regionorg":"Nord-Afrika"},{"uso":3,"lng":28.7925,"uwi":3,"name":"Dalaman","icao":"LTBS","land":"Turkey","id":"DLM","region":"eu","nameshort":"Dalaman","lat":36.7131,"regionorg":"Süd-Europa"},{"uso":3,"lng":49.7979,"uwi":3,"name":"Dammam-King Fahd International","icao":"OEDF","land":"Saudi Arabia","id":"DMM","region":"as","nameshort":"Dammam","lat":26.4712,"regionorg":"Vorder-Asien"},{"uso":3,"lng":51.6081,"uwi":3,"name":"Doha-Hamad International Airport","icao":"OTHH","land":"Qatar","id":"DOH","region":"as","nameshort":"Doha-Hamad","lat":25.2731,"regionorg":"Vorder-Asien"},{"uso":8,"lng":115.167,"uwi":8,"name":"Denpasar-Ngurah Rai","icao":"WADD","land":"Indonesia","id":"DPS","region":"au","nameshort":"Denpasar-Ngurah Rai","lat":-8.7482,"regionorg":"Ozeanien III"},{"lng":13.7672,"uwi":1,"sostart":"2024-03-31T00:00:00+0100","nameshort":"Dresden","uso":2,"soend":"2024-10-27T00:00:00+0200","name":"Dresden-International","icao":"EDDC","land":"Germany","id":"DRS","region":"de","lat":51.1328,"regionorg":"Nord-Europa"},{"lng":7.6122,"uwi":1,"sostart":"2024-03-31T00:00:00+0100","nameshort":"Dortmund","uso":2,"soend":"2024-10-27T00:00:00+0200","name":"Dortmund","icao":"EDLW","land":"Germany","id":"DTM","region":"de","lat":51.5183,"regionorg":"Nord-Europa"},{"lng":-83.3533,"uwi":-5,"sostart":"2024-03-10T00:00:00+0100","nameshort":"Detroit","uso":-4,"soend":"2024-11-03T00:00:00+0100","name":"Detroit-Metropolitan Wayne County","icao":"KDTW","land":"United States","id":"DTW","region":"am","lat":42.2125,"regionorg":"Nord-Amerika II"},{"uso":2,"uwi":1,"sostart":"2024-03-31T00:00:00+0100","soend":"2024-10-27T00:00:00+0200","name":"Dortmund Main Station","icao":"","land":"Germany","id":"DTZ","region":"de","nameshort":"Dortmund Main St.","regionorg":"Nord-Europa"},{"lng":-6.2701,"uwi":0,"sostart":"2024-03-31T00:00:00+0100","nameshort":"Dublin","uso":1,"soend":"2024-10-27T00:00:00+0200","name":"Dublin","icao":"EIDW","land":"Ireland","id":"DUB","region":"eu","lat":53.4213,"regionorg":"Nord-Europa"},{"lng":6.7668,"uwi":1,"sostart":"2024-03-31T00:00:00+0100","nameshort":"Dusseldorf","uso":2,"soend":"2024-10-27T00:00:00+0200","name":"Dusseldorf","icao":"EDDL","land":"Germany","id":"DUS","region":"de","lat":51.2895,"regionorg":"Nord-Europa"},{"uso":4,"lng":55.1614,"uwi":4,"name":"Dubai-Al Maktoum International","icao":"OMDW","land":"United Arab Emirates","id":"DWC","region":"as","nameshort":"Dubai-Al Maktoum","lat":24.8964,"regionorg":"Vorder-Asien"},{"uso":4,"lng":55.3644,"uwi":4,"name":"Dubai-International","icao":"OMDB","land":"United Arab Emirates","id":"DXB","region":"as","nameshort":"Dubai-International","lat":25.2528,"regionorg":"Vorder-Asien"},{"lng":-1.7906,"uwi":1,"sostart":"2024-03-31T00:00:00+0100","nameshort":"San Sebastian","uso":2,"soend":"2024-10-27T00:00:00+0200","name":"San Sebastian","icao":"LESO","land":"Spain","id":"EAS","region":"eu","lat":43.3565,"regionorg":"Süd-Europa"},{"uso":3,"lng":43.9632,"uwi":3,"name":"Erbil-International","icao":"ORER","land":"Iraq","id":"EBL","region":"as","nameshort":"Erbil","lat":36.2376,"regionorg":"Vorder-Asien"},{"lng":-3.3725,"uwi":0,"sostart":"2024-03-31T00:00:00+0100","nameshort":"Edinburgh","uso":1,"soend":"2024-10-27T00:00:00+0200","name":"Edinburgh","icao":"EGPH","land":"Great Britain","id":"EDI","region":"eu","lat":55.95,"regionorg":"Nord-Europa"},{"lng":20.5005,"uwi":2,"sostart":"2024-03-31T00:00:00+0100","nameshort":"Kefallinia","uso":3,"soend":"2024-10-27T00:00:00+0200","name":"Kefallinia-Cephalonia International","icao":"LGKF","land":"Greece","id":"EFL","region":"eu","lat":38.1201,"regionorg":"Süd-Europa"},{"uso":8,"lng":115.03,"uwi":8,"name":"Ezhou Huahu","icao":"ZHEC","land":"China","id":"EHU","region":"as","nameshort":"Ezhou Huahu","lat":30.3429,"regionorg":"China"},{"lng":-1.3281,"uwi":0,"sostart":"2024-03-31T00:00:00+0100","nameshort":"East Midlands","uso":1,"soend":"2024-10-27T00:00:00+0200","name":"East Midlands","icao":"EGNX","land":"Great Britain","id":"EMA","region":"eu","lat":52.8311,"regionorg":"Nord-Europa"},{"uso":3,"lng":32.995,"uwi":3,"name":"Ankara Esenboga","icao":"LTAC","land":"Turkey","id":"ESB","region":"eu","nameshort":"Ankara Esenboga","lat":40.1281,"regionorg":"Süd-Europa"},{"uso":2,"uwi":1,"sostart":"2024-03-31T00:00:00+0100","soend":"2024-10-27T00:00:00+0200","name":"Essen Central Station","icao":"","land":"Germany","id":"ESZ","region":"de","nameshort":"Essen Central","regionorg":"Nord-Europa"},{"lng":16.6781,"uwi":1,"sostart":"2024-03-31T00:00:00+0100","nameshort":"Evenes","uso":2,"soend":"2024-10-27T00:00:00+0200","name":"Evenes","icao":"ENEV","land":"Norway","id":"EVE","region":"eu","lat":68.4913,"regionorg":"Nord-Europa"},{"uso":4,"lng":44.3959,"uwi":4,"name":"Yerevan-Zvartnots International","icao":"UDYZ","land":"Armenia","id":"EVN","region":"eu","nameshort":"Yerevan","lat":40.1473,"regionorg":"Russland"},{"lng":-74.1686,"uwi":-5,"sostart":"2024-03-10T00:00:00+0100","nameshort":"New York-Newark","uso":-4,"soend":"2024-11-03T00:00:00+0100","name":"New York-Newark Liberty Intl","icao":"KEWR","land":"United States","id":"EWR","region":"am","lat":40.6925,"regionorg":"Nord-Amerika II"},{"uso":-3,"lng":-58.5358,"uwi":-3,"name":"Buenos Aires-Ministro Pistarini International","icao":"SAEZ","land":"Argentina","id":"EZE","region":"am","nameshort":"Buenos Aires","lat":-34.8222,"regionorg":"Süd-Amerika"},{"uso":3,"lng":39.2914,"uwi":3,"name":"Elazig","icao":"LTCA","land":"Turkey","id":"EZS","region":"eu","nameshort":"Elazig","lat":38.6069,"regionorg":"Süd-Europa"},{"lng":-0.7763,"uwi":0,"sostart":"2024-03-31T00:00:00+0100","nameshort":"Farnborough","uso":1,"soend":"2024-10-27T00:00:00+0200","name":"Farnborough","icao":"EGLF","land":"Great Britain","id":"FAB","region":"eu","lat":51.2758,"regionorg":"Nord-Europa"},{"lng":-7.9659,"uwi":0,"sostart":"2024-03-31T00:00:00+0100","nameshort":"Faro","uso":1,"soend":"2024-10-27T00:00:00+0200","name":"Faro-International","icao":"LPFR","land":"Portugal","id":"FAO","region":"eu","lat":37.0144,"regionorg":"Süd-Europa"},{"lng":12.2389,"uwi":1,"sostart":"2024-03-31T00:00:00+0100","nameshort":"Rome-Fiumicino","uso":2,"soend":"2024-10-27T00:00:00+0200","name":"Rome-Fiumicino","icao":"LIRF","land":"Italy","id":"FCO","region":"eu","lat":41.8003,"regionorg":"Süd-Europa"},{"uso":-4,"lng":-61.0032,"uwi":-4,"name":"Fort-de France  Martinique A.Cesaire","icao":"TFFF","land":"Martinique","id":"FDF","region":"am","nameshort":"Martinique","lat":14.591,"regionorg":"Karibik"},{"lng":11.2051,"uwi":1,"sostart":"2024-03-31T00:00:00+0100","nameshort":"Florence","uso":2,"soend":"2024-10-27T00:00:00+0200","name":"Florence-Peretola","icao":"LIRQ","land":"Italy","id":"FLR","region":"eu","lat":43.81,"regionorg":"Süd-Europa"},{"lng":-16.7745,"uwi":0,"sostart":"2024-03-31T00:00:00+0100","nameshort":"Funchal","uso":1,"soend":"2024-10-27T00:00:00+0200","name":"Funchal-Madeira","icao":"LPMA","land":"Portugal","id":"FNC","region":"eu","lat":32.6979,"regionorg":"Süd-Europa"},{"lng":8.5706,"uwi":1,"sostart":"2024-03-31T00:00:00+0100","nameshort":"Frankfurt","uso":2,"soend":"2024-10-27T00:00:00+0200","name":"Frankfurt","icao":"EDDF","land":"Germany","id":"FRA","region":"de","lat":50.0333,"regionorg":"Nord-Europa"},{"lng":9.0978,"uwi":1,"sostart":"2024-03-31T00:00:00+0100","nameshort":"Figari","uso":2,"soend":"2024-10-27T00:00:00+0200","name":"Figari-Sud Corse","icao":"LFKF","land":"France","id":"FSC","region":"eu","lat":41.5006,"regionorg":"Süd-Europa"},{"lng":-13.8638,"uwi":0,"sostart":"2024-03-31T00:00:00+0100","nameshort":"Fuerteventura","uso":1,"soend":"2024-10-27T00:00:00+0200","name":"Fuerteventura","icao":"GCFV","land":"Spain","id":"FUE","region":"eu","lat":28.4527,"regionorg":"Süd-Europa"},{"lng":-103.311,"uwi":-6,"sostart":"2024-04-07T00:00:00+0200","nameshort":"Guadalajara","uso":-5,"soend":"2024-10-27T00:00:00+0200","name":"Guadalajara-Don Miguel Hidalgo y Costilla Int","icao":"MMGL","land":"Mexico","id":"GDL","region":"am","lat":20.5218,"regionorg":"Mittel-Amerika"},{"lng":18.4662,"uwi":1,"sostart":"2024-03-31T00:00:00+0100","nameshort":"Gdansk","uso":2,"soend":"2024-10-27T00:00:00+0200","name":"Gdansk Lech Walesa","icao":"EPGD","land":"Poland","id":"GDN","region":"eu","lat":54.3776,"regionorg":"Nord-Europa"},{"uso":-3,"lng":-43.2506,"uwi":-3,"name":"Rio de Janeiro/Galeao-Antonio Carlos Jobim","icao":"SBGL","land":"Brazil","id":"GIG","region":"am","nameshort":"Rio de Janeiro","lat":-22.81,"regionorg":"Süd-Amerika"},{"lng":-4.4331,"uwi":0,"sostart":"2024-03-31T00:00:00+0100","nameshort":"Glasgow","uso":1,"soend":"2024-10-27T00:00:00+0200","name":"Glasgow","icao":"EGPF","land":"Great Britain","id":"GLA","region":"eu","lat":55.8719,"regionorg":"Nord-Europa"},{"lng":12.2798,"uwi":1,"sostart":"2024-03-31T00:00:00+0100","nameshort":"Gothenburg","uso":2,"soend":"2024-10-27T00:00:00+0200","name":"Gothenburg-Landvetter","icao":"ESGG","land":"Sweden","id":"GOT","region":"eu","lat":57.6628,"regionorg":"Nord-Europa"},{"lng":21.4256,"uwi":2,"sostart":"2024-03-31T00:00:00+0100","nameshort":"Patras-Araxos","uso":3,"soend":"2024-10-27T00:00:00+0200","name":"Patras-Araxos","icao":"LGRX","land":"Greece","id":"GPA","region":"eu","lat":38.1511,"regionorg":"Süd-Europa"},{"lng":2.7606,"uwi":1,"sostart":"2024-03-31T00:00:00+0100","nameshort":"Girona","uso":2,"soend":"2024-10-27T00:00:00+0200","name":"Girona-Costa Brava","icao":"LEGE","land":"Spain","id":"GRO","region":"eu","lat":41.901,"regionorg":"Süd-Europa"},{"uso":-3,"lng":-46.4692,"uwi":-3,"name":"Sao Paulo-Guarulhos International","icao":"SBGR","land":"Brazil","id":"GRU","region":"am","nameshort":"Sao Paulo-Guarulhos","lat":-23.4322,"regionorg":"Süd-Amerika"},{"lng":15.4396,"uwi":1,"sostart":"2025-03-30T00:00:00+0100","nameshort":"Graz","uso":2,"soend":"2025-10-26T00:00:00+0200","name":"Graz","icao":"LOWG","land":"Austria","id":"GRZ","region":"eu","lat":46.9911,"regionorg":"Süd-Europa"},{"lng":6.109,"uwi":1,"sostart":"2024-03-31T00:00:00+0100","nameshort":"Geneva","uso":2,"soend":"2024-10-27T00:00:00+0200","name":"Geneva-International","icao":"LSGG","land":"Switzerland","id":"GVA","region":"eu","lat":46.2381,"regionorg":"Süd-Europa"},{"lng":8.3405,"uwi":1,"sostart":"2024-03-31T00:00:00+0100","nameshort":"Westerland-Sylt","uso":2,"soend":"2024-10-27T00:00:00+0200","name":"Westerland-Sylt","icao":"EDXW","land":"Germany","id":"GWT","region":"de","lat":54.9132,"regionorg":"Nord-Europa"},{"uso":4,"lng":50.0467,"uwi":4,"name":"Baku-Heydar Aliyev International","icao":"UBBB","land":"Azerbaijan","id":"GYD","region":"eu","nameshort":"Baku","lat":40.4675,"regionorg":"Russland"},{"uso":3,"lng":37.4787,"uwi":3,"name":"Gaziantep-Oguzeli","icao":"LTAJ","land":"Turkey","id":"GZT","region":"eu","nameshort":"Gaziantep","lat":36.9472,"regionorg":"Süd-Europa"},{"lng":9.6851,"uwi":1,"sostart":"2024-03-31T00:00:00+0100","nameshort":"Hanover","uso":2,"soend":"2024-10-27T00:00:00+0200","name":"Hanover","icao":"EDDV","land":"Germany","id":"HAJ","region":"de","lat":52.4611,"regionorg":"Nord-Europa"},{"lng":9.9882,"uwi":1,"sostart":"2024-03-31T00:00:00+0100","nameshort":"Hamburg","uso":2,"soend":"2024-10-27T00:00:00+0200","name":"Hamburg-Fuhlsbuettel","icao":"EDDH","land":"Germany","id":"HAM","region":"de","lat":53.6304,"regionorg":"Nord-Europa"},{"uso":7,"lng":105.807,"uwi":7,"name":"Hanoi-Noi Bai International","icao":"VVNB","land":"Vietnam","id":"HAN","region":"as","nameshort":"Hanoi","lat":21.2212,"regionorg":"Zentral-Asien"},{"lng":-82.4091,"uwi":-5,"sostart":"2024-03-10T00:00:00+0100","nameshort":"Havana","uso":-4,"soend":"2024-11-03T00:00:00+0100","name":"Havana-Jose Marti International","icao":"MUHA","land":"Cuba","id":"HAV","region":"am","lat":22.9892,"regionorg":"Mittel-Amerika"},{"uso":-4,"uwi":-5,"sostart":"2024-03-10T00:00:00+0100","soend":"2024-11-03T00:00:00+0100","name":"Headquarter","icao":"HQHQ","land":"United States","id":"HDQ","region":"am","nameshort":"Headquarter","regionorg":"Nord-Amerika II"},{"lng":24.9633,"uwi":2,"sostart":"2024-03-31T00:00:00+0100","nameshort":"Helsinki","uso":3,"soend":"2024-10-27T00:00:00+0200","name":"Helsinki-Vantaa","icao":"EFHK","land":"Finland","id":"HEL","region":"eu","lat":60.3172,"regionorg":"Nord-Europa"},{"lng":25.1803,"uwi":2,"sostart":"2024-03-31T00:00:00+0100","nameshort":"Heraklion","uso":3,"soend":"2024-10-27T00:00:00+0200","name":"Heraklion-Nikos Kazantzakis","icao":"LGIR","land":"Greece","id":"HER","region":"eu","lat":35.3397,"regionorg":"Süd-Europa"},{"lng":7.2639,"uwi":1,"sostart":"2024-03-31T00:00:00+0100","nameshort":"Frankfurt-Hahn","uso":2,"soend":"2024-10-27T00:00:00+0200","name":"Frankfurt-Hahn","icao":"EDFH","land":"Germany","id":"HHN","region":"de","lat":49.9487,"regionorg":"Nord-Europa"},{"uso":8,"lng":113.915,"uwi":8,"name":"Hong Kong-International","icao":"VHHH","land":"Hong Kong","id":"HKG","region":"as","nameshort":"Hong Kong","lat":22.3089,"regionorg":"Zentral-Asien"},{"uso":7,"lng":98.3169,"uwi":7,"name":"Phuket-International","icao":"VTSP","land":"Thailand","id":"HKT","region":"as","nameshort":"Phuket","lat":8.1132,"regionorg":"Zentral-Asien"},{"uso":9,"lng":139.781,"uwi":9,"name":"Tokyo-Haneda International","icao":"RJTT","land":"Japan","id":"HND","region":"as","nameshort":"Tokyo-Haneda","lat":35.5533,"regionorg":"Ost-Asien"},{"lng":-76.3151,"uwi":-5,"sostart":"2024-03-10T00:00:00+0100","nameshort":"Holguin","uso":-4,"soend":"2024-11-03T00:00:00+0100","name":"Holguin-Frank Pais","icao":"MUHG","land":"Cuba","id":"HOG","region":"am","lat":20.7856,"regionorg":"Mittel-Amerika"},{"uso":2,"lng":33.7994,"uwi":2,"name":"Hurghada","icao":"HEGN","land":"Egypt","id":"HRG","region":"af","nameshort":"Hurghada","lat":27.1783,"regionorg":"Ost-Afrika"},{"uso":5.5,"lng":78.4299,"uwi":5.5,"name":"Hyderabad-Rajiv Gandhi International","icao":"VOHS","land":"India","id":"HYD","region":"as","nameshort":"Hyderabad","lat":17.2313,"regionorg":"Zentral-Asien"},{"lng":-77.4558,"uwi":-5,"sostart":"2024-03-10T00:00:00+0100","nameshort":"Washington-Dulles","uso":-4,"soend":"2024-11-03T00:00:00+0100","name":"Washington-Dulles International","icao":"KIAD","land":"United States","id":"IAD","region":"am","lat":38.9445,"regionorg":"Nord-Amerika II"},{"lng":-95.3414,"uwi":-6,"sostart":"2024-03-10T00:00:00+0100","nameshort":"Houston","uso":-5,"soend":"2024-11-03T00:00:00+0100","name":"Houston-George Bush Intercontinental","icao":"KIAH","land":"United States","id":"IAH","region":"am","lat":29.9844,"regionorg":"Nord-Amerika II"},{"lng":1.3731,"uwi":1,"sostart":"2024-03-31T00:00:00+0100","nameshort":"Ibiza","uso":2,"soend":"2024-10-27T00:00:00+0200","name":"Ibiza","icao":"LEIB","land":"Spain","id":"IBZ","region":"eu","lat":38.8729,"regionorg":"Süd-Europa"},{"uso":9,"lng":126.44,"uwi":9,"name":"Seoul-Incheon International","icao":"RKSI","land":"South Korea","id":"ICN","region":"as","nameshort":"Seoul-Incheon","lat":37.4633,"regionorg":"Ost-Asien"},{"lng":51.1522,"uwi":3.5,"sostart":"2023-03-21T00:00:00+0100","nameshort":"Tehran Imam Khomeini","uso":4.5,"soend":"2023-09-21T00:00:00+0200","name":"Tehran-Imam Khomeini International","icao":"OIIE","land":"Iran","id":"IKA","region":"as","lat":35.4161,"regionorg":"Vorder-Asien"},{"uso":5,"lng":72.8516,"uwi":5,"name":"Islamabad-Benazir Bhutto International","icao":"OPIS","land":"Pakistan","id":"ISB","region":"as","nameshort":"Islamabad","lat":33.5607,"regionorg":"Vorder-Asien"},{"uso":3,"lng":28.7519,"uwi":3,"name":"Istanbul","icao":"LTFM","land":"Turkey","id":"IST","region":"eu","nameshort":"Istanbul","lat":41.2753,"regionorg":"Süd-Europa"},{"lng":27.4053,"uwi":2,"sostart":"2024-03-31T00:00:00+0100","nameshort":"Ivalo","uso":3,"soend":"2024-10-27T00:00:00+0200","name":"Ivalo","icao":"EFIV","land":"Finland","id":"IVL","region":"eu","lat":68.6073,"regionorg":"Nord-Europa"},{"uso":3,"lng":39.1565,"uwi":3,"name":"Jeddah-King Abdulaziz International","icao":"OEJN","land":"Saudi Arabia","id":"JED","region":"as","nameshort":"Jeddah","lat":21.6796,"regionorg":"Vorder-Asien"},{"lng":-73.7789,"uwi":-5,"sostart":"2024-03-10T00:00:00+0100","nameshort":"New York-J.F.Kennedy","uso":-4,"soend":"2024-11-03T00:00:00+0100","name":"New York-J.F.Kennedy","icao":"KJFK","land":"United States","id":"JFK","region":"am","lat":40.6397,"regionorg":"Nord-Amerika II"},{"lng":25.3481,"uwi":2,"sostart":"2024-03-31T00:00:00+0100","nameshort":"Mykonos","uso":3,"soend":"2024-10-27T00:00:00+0200","name":"Mykonos","icao":"LGMK","land":"Greece","id":"JMK","region":"eu","lat":37.4351,"regionorg":"Süd-Europa"},{"uso":2,"lng":28.246,"uwi":2,"name":"Johannesburg-O.R. Tambo International","icao":"FAOR","land":"South Africa","id":"JNB","region":"af","nameshort":"Johannesburg","lat":-26.1392,"regionorg":"Süd-Afrika"},{"uso":3,"lng":37.0745,"uwi":3,"name":"Kilimanjaro-International","icao":"HTKJ","land":"Tanzania","id":"JRO","region":"af","nameshort":"Kilimanjaro","lat":-3.4294,"regionorg":"Ost-Afrika"},{"lng":23.5037,"uwi":2,"sostart":"2024-03-31T00:00:00+0100","nameshort":"Skiathos","uso":3,"soend":"2024-10-27T00:00:00+0200","name":"Skiathos-Alexandros Papadiamantis","icao":"LGSK","land":"Greece","id":"JSI","region":"eu","lat":39.1771,"regionorg":"Süd-Europa"},{"lng":25.4793,"uwi":2,"sostart":"2024-03-31T00:00:00+0100","nameshort":"Thira Santorini","uso":3,"soend":"2024-10-27T00:00:00+0200","name":"Thira Santorini","icao":"LGSR","land":"Greece","id":"JTR","region":"eu","lat":36.3992,"regionorg":"Süd-Europa"},{"lng":29.2394,"uwi":2,"sostart":"2024-03-31T00:00:00+0100","nameshort":"Kuusamo","uso":3,"soend":"2024-10-27T00:00:00+0200","name":"Kuusamo","icao":"EFKS","land":"Finland","id":"KAO","region":"eu","lat":65.9876,"regionorg":"Nord-Europa"},{"uso":0,"lng":-22.6056,"uwi":0,"name":"Reykjavik-Keflavik International","icao":"BIKF","land":"Iceland","id":"KEF","region":"po","nameshort":"Reykjavik-Keflavik","lat":63.985,"regionorg":"Polarregion"},{"lng":10.1453,"uwi":1,"sostart":"2024-03-31T00:00:00+0100","nameshort":"Kiel","uso":2,"soend":"2024-10-27T00:00:00+0200","name":"Kiel-Holtenau","icao":"EDHK","land":"Germany","id":"KEL","region":"de","lat":54.3794,"regionorg":"Nord-Europa"},{"lng":27.0917,"uwi":2,"sostart":"2024-03-31T00:00:00+0100","nameshort":"Kos","uso":3,"soend":"2024-10-27T00:00:00+0200","name":"Kos-Hippocrates","icao":"LGKO","land":"Greece","id":"KGS","region":"eu","lat":36.7933,"regionorg":"Süd-Europa"},{"uso":-5,"lng":-76.7875,"uwi":-5,"name":"Kingston-Norman Manley International","icao":"MKJP","land":"Jamaica","id":"KIN","region":"am","nameshort":"Kingston","lat":17.9357,"regionorg":"Mittel-Amerika"},{"uso":2,"uwi":1,"sostart":"2024-03-31T00:00:00+0100","soend":"2024-10-27T00:00:00+0200","name":"Karlsruhe/Baden-Baden Main Station","icao":"","land":"Germany","id":"KJR","region":"de","nameshort":"Karlsruhe Main St.","regionorg":"Nord-Europa"},{"lng":22.0255,"uwi":2,"sostart":"2024-03-31T00:00:00+0100","nameshort":"Kalamata","uso":3,"soend":"2024-10-27T00:00:00+0200","name":"Kalamata","icao":"LGKL","land":"Greece","id":"KLX","region":"eu","lat":37.0683,"regionorg":"Süd-Europa"},{"lng":19.7848,"uwi":1,"sostart":"2024-03-31T00:00:00+0100","nameshort":"Krakow","uso":2,"soend":"2024-10-27T00:00:00+0200","name":"Krakow-Balice","icao":"EPKK","land":"Poland","id":"KRK","region":"eu","lat":50.0777,"regionorg":"Nord-Europa"},{"lng":24.8468,"uwi":2,"sostart":"2024-03-31T00:00:00+0100","nameshort":"Kittila","uso":3,"soend":"2024-10-27T00:00:00+0200","name":"Kittila","icao":"EFKT","land":"Finland","id":"KTT","region":"eu","lat":67.701,"regionorg":"Nord-Europa"},{"lng":19.08,"uwi":1,"sostart":"2024-03-31T00:00:00+0100","nameshort":"Katowice","uso":2,"soend":"2024-10-27T00:00:00+0200","name":"Katowice International","icao":"EPKT","land":"Poland","id":"KTW","region":"eu","lat":50.4743,"regionorg":"Nord-Europa"},{"lng":24.6192,"uwi":2,"sostart":"2024-03-31T00:00:00+0100","nameshort":"Kavala","uso":3,"soend":"2024-10-27T00:00:00+0200","name":"Kavala-Megas Alexandros","icao":"LGKV","land":"Greece","id":"KVA","region":"eu","lat":40.9133,"regionorg":"Süd-Europa"},{"uso":3,"lng":47.9689,"uwi":3,"name":"Kuwait-International","icao":"OKKK","land":"Kuwait","id":"KWI","region":"as","nameshort":"Kuwait","lat":29.2266,"regionorg":"Vorder-Asien"},{"uso":2,"uwi":1,"sostart":"2024-03-31T00:00:00+0100","soend":"2024-10-27T00:00:00+0200","name":"Kassel Wilhelmshöhe Main station","icao":"","land":"Germany","id":"KWQ","region":"de","nameshort":"Kassel Wilhemsh. St.","regionorg":"Nord-Europa"},{"uso":1,"lng":13.2312,"uwi":1,"name":"Luanda-Quatro de Fevereiro International","icao":"FNLU","land":"Angola","id":"LAD","region":"af","nameshort":"Luanda","lat":-8.8584,"regionorg":"Süd-Afrika"},{"lng":-115.152,"uwi":-8,"sostart":"2024-03-10T00:00:00+0100","nameshort":"Las Vegas-Harry Reid","uso":-7,"soend":"2024-11-03T00:00:00+0100","name":"Las Vegas-Harry Reid International","icao":"KLAS","land":"United States","id":"LAS","region":"am","lat":36.0801,"regionorg":"Nord-Amerika II"},{"lng":-118.408,"uwi":-8,"sostart":"2024-03-10T00:00:00+0100","nameshort":"Los Angeles","uso":-7,"soend":"2024-11-03T00:00:00+0100","name":"Los Angeles-International","icao":"KLAX","land":"United States","id":"LAX","region":"am","lat":33.9425,"regionorg":"Nord-Amerika II"},{"uso":2,"uwi":1,"sostart":"2024-03-31T00:00:00+0100","soend":"2024-10-27T00:00:00+0200","name":"Paris-Le Bourget","icao":"LFPB","land":"France","id":"LBG","region":"eu","nameshort":"Paris-Le Bourget","regionorg":"Süd-Europa"},{"lng":33.6249,"uwi":2,"sostart":"2024-03-31T00:00:00+0100","nameshort":"Larnaca","uso":3,"soend":"2024-10-27T00:00:00+0200","name":"Larnaca-International","icao":"LCLK","land":"Cyprus","id":"LCA","region":"eu","lat":34.8751,"regionorg":"Süd-Europa"},{"lng":0.0553,"uwi":0,"sostart":"2024-03-31T00:00:00+0100","nameshort":"London-City","uso":1,"soend":"2024-10-27T00:00:00+0200","name":"London-City","icao":"EGLC","land":"Great Britain","id":"LCY","region":"eu","lat":51.5053,"regionorg":"Nord-Europa"},{"lng":-0.0064,"uwi":1,"sostart":"2024-03-31T00:00:00+0100","nameshort":"Lourdes-Tarbes","uso":2,"soend":"2024-10-27T00:00:00+0200","name":"Tarbes-Lourdes-Pyérnées","icao":"LFBT","land":"France","id":"LDE","region":"eu","lat":43.1787,"regionorg":"Süd-Europa"},{"lng":12.2364,"uwi":1,"sostart":"2024-03-31T00:00:00+0100","nameshort":"Leipzig/Halle","uso":2,"soend":"2024-10-27T00:00:00+0200","name":"Leipzig/Halle","icao":"EDDP","land":"Germany","id":"LEJ","region":"de","lat":51.4239,"regionorg":"Nord-Europa"},{"lng":5.4432,"uwi":1,"sostart":"2025-03-30T00:00:00+0100","nameshort":"Liege","uso":2,"soend":"2025-10-26T00:00:00+0200","name":"Liege","icao":"EBLG","land":"Belgium","id":"LGG","region":"eu","lat":50.6374,"regionorg":"Nord-Europa"},{"lng":-0.4614,"uwi":0,"sostart":"2024-03-31T00:00:00+0100","nameshort":"London-Heathrow","uso":1,"soend":"2024-10-27T00:00:00+0200","name":"London-Heathrow","icao":"EGLL","land":"Great Britain","id":"LHR","region":"eu","lat":51.4775,"regionorg":"Nord-Europa"},{"uso":-5,"uwi":-5,"name":"Lima-Jorge Chvez International","icao":"SPJC","land":"Peru","id":"LIM","region":"am","nameshort":"Lima-Jorge Chavez","regionorg":"Süd-Amerika"},{"lng":9.2783,"uwi":1,"sostart":"2024-03-31T00:00:00+0100","nameshort":"Milan-Linate","uso":2,"soend":"2024-10-27T00:00:00+0200","name":"Milan-Linate","icao":"LIML","land":"Italy","id":"LIN","region":"eu","lat":45.4494,"regionorg":"Süd-Europa"},{"lng":-9.1359,"uwi":0,"sostart":"2024-03-31T00:00:00+0100","nameshort":"Lisbon","uso":1,"soend":"2024-10-27T00:00:00+0200","name":"Lisbon-Humberto Delgado","icao":"LPPT","land":"Portugal","id":"LIS","region":"eu","lat":38.7813,"regionorg":"Süd-Europa"},{"lng":14.4576,"uwi":1,"sostart":"2024-03-31T00:00:00+0100","nameshort":"Ljubljana","uso":2,"soend":"2024-10-27T00:00:00+0200","name":"Ljubljana-Joze Pucnik","icao":"LJLJ","land":"Slovenia","id":"LJU","region":"eu","lat":46.2237,"regionorg":"Süd-Europa"},{"lng":14.1875,"uwi":1,"sostart":"2025-03-30T00:00:00+0100","nameshort":"Linz","uso":2,"soend":"2025-10-26T00:00:00+0200","name":"Linz-Blue Danube","icao":"LOWL","land":"Austria","id":"LNZ","region":"eu","lat":48.2332,"regionorg":"Süd-Europa"},{"uso":1,"lng":3.3212,"uwi":1,"name":"Lagos-Murtala Muhammed International","icao":"DNMM","land":"Nigeria","id":"LOS","region":"af","nameshort":"Lagos","lat":6.5774,"regionorg":"Nord-Afrika"},{"lng":-15.3866,"uwi":0,"sostart":"2024-03-31T00:00:00+0100","nameshort":"Gran Canaria","uso":1,"soend":"2024-10-27T00:00:00+0200","name":"Gran Canaria","icao":"GCLP","land":"Spain","id":"LPA","region":"eu","lat":27.9319,"regionorg":"Süd-Europa"},{"lng":-2.8497,"uwi":0,"sostart":"2024-03-31T00:00:00+0100","nameshort":"Liverpool","uso":1,"soend":"2024-10-27T00:00:00+0200","name":"Liverpool-John Lennon","icao":"EGGP","land":"Great Britain","id":"LPL","region":"eu","lat":53.3336,"regionorg":"Nord-Europa"},{"uso":-4,"lng":-68.9118,"uwi":-4,"name":"La Romana-International","icao":"MDLR","land":"Dominikan Republic","id":"LRM","region":"am","nameshort":"La Romana","lat":18.4507,"regionorg":"Mittel-Amerika"},{"lng":-0.3683,"uwi":0,"sostart":"2024-03-31T00:00:00+0100","nameshort":"London-Luton","uso":1,"soend":"2024-10-27T00:00:00+0200","name":"London-Luton","icao":"EGGW","land":"Great Britain","id":"LTN","region":"eu","lat":51.8747,"regionorg":"Nord-Europa"},{"lng":6.2044,"uwi":1,"sostart":"2024-03-31T00:00:00+0100","nameshort":"Luxembourg","uso":2,"soend":"2024-10-27T00:00:00+0200","name":"Luxembourg","icao":"ELLX","land":"Luxembourg","id":"LUX","region":"eu","lat":49.6233,"regionorg":"Nord-Europa"},{"lng":22.7136,"uwi":1,"sostart":"2024-03-31T00:00:00+0100","nameshort":"Lublin","uso":2,"soend":"2024-10-27T00:00:00+0200","name":"Lublin","icao":"EPLB","land":"Poland","id":"LUZ","region":"eu","lat":51.2403,"regionorg":"Nord-Europa"},{"uso":2,"lng":32.7066,"uwi":2,"name":"Luxor-International","icao":"HELX","land":"Egypt","id":"LXR","region":"af","nameshort":"Luxor","lat":25.671,"regionorg":"Ost-Afrika"},{"lng":5.0811,"uwi":1,"sostart":"2024-03-31T00:00:00+0100","nameshort":"Lyon-Saint Exupery","uso":2,"soend":"2024-10-27T00:00:00+0200","name":"Lyon-Saint Exupéry","icao":"LFLL","land":"France","id":"LYS","region":"eu","lat":45.7256,"regionorg":"Süd-Europa"},{"uso":5.5,"lng":80.1693,"uwi":5.5,"name":"Chennai/Madras-International","icao":"VOMM","land":"India","id":"MAA","region":"as","nameshort":"Chennai","lat":12.99,"regionorg":"Zentral-Asien"},{"lng":-3.5626,"uwi":1,"sostart":"2024-03-31T00:00:00+0100","nameshort":"Madrid-Barajas","uso":2,"soend":"2024-10-27T00:00:00+0200","name":"Madrid-Barajas","icao":"LEMD","land":"Spain","id":"MAD","region":"eu","lat":40.4719,"regionorg":"Süd-Europa"},{"lng":4.2187,"uwi":1,"sostart":"2024-03-31T00:00:00+0100","nameshort":"Menorca","uso":2,"soend":"2024-10-27T00:00:00+0200","name":"Menorca","icao":"LEMH","land":"Spain","id":"MAH","region":"eu","lat":39.8626,"regionorg":"Süd-Europa"},{"lng":-2.275,"uwi":0,"sostart":"2024-03-31T00:00:00+0100","nameshort":"Manchester","uso":1,"soend":"2024-10-27T00:00:00+0200","name":"Manchester","icao":"EGCC","land":"Great Britain","id":"MAN","region":"eu","lat":53.3537,"regionorg":"Nord-Europa"},{"uso":3,"lng":39.5942,"uwi":3,"name":"Mombasa-Moi International","icao":"HKMO","land":"Kenya","id":"MBA","region":"af","nameshort":"Mombasa","lat":-4.0348,"regionorg":"Ost-Afrika"},{"uso":-5,"lng":-77.9134,"uwi":-5,"name":"Montego Bay Sangster International","icao":"MKJS","land":"Jamaica","id":"MBJ","region":"am","nameshort":"Montego Bay","lat":18.5037,"regionorg":"Mittel-Amerika"},{"lng":-81.309,"uwi":-5,"sostart":"2024-03-10T00:00:00+0100","nameshort":"Orlando","uso":-4,"soend":"2024-11-03T00:00:00+0100","name":"Orlando","icao":"KMCO","land":"United States","id":"MCO","region":"am","lat":28.4294,"regionorg":"Nord-Amerika II"},{"uso":4,"lng":58.2844,"uwi":4,"name":"Muscat International","icao":"OOMS","land":"Oman","id":"MCT","region":"as","nameshort":"Muscat","lat":23.5933,"regionorg":"Vorder-Asien"},{"uso":3,"lng":39.7051,"uwi":3,"name":"Medinah-Prince Mohammad bin Abdulaziz Interna","icao":"OEMA","land":"Saudi Arabia","id":"MED","region":"as","nameshort":"Medinah","lat":24.5534,"regionorg":"Vorder-Asien"},{"lng":-89.9767,"uwi":-6,"sostart":"2024-03-10T00:00:00+0100","nameshort":"Memphis","uso":-5,"soend":"2024-11-03T00:00:00+0100","name":"Memphis","icao":"KMEM","land":"United States","id":"MEM","region":"am","lat":35.0424,"regionorg":"Nord-Amerika II"},{"lng":-99.0721,"uwi":-6,"sostart":"2024-04-07T00:00:00+0200","nameshort":"Mexico City","uso":-5,"soend":"2024-10-27T00:00:00+0200","name":"Mexico City Benito Juarez Intl","icao":"MMMX","land":"Mexico","id":"MEX","region":"am","lat":19.4363,"regionorg":"Mittel-Amerika"},{"uso":2,"uwi":1,"sostart":"2024-03-31T00:00:00+0100","soend":"2024-10-27T00:00:00+0200","name":"Mannheim Hbf Railway Station","icao":"","land":"Germany","id":"MHJ","region":"de","nameshort":"Mannheim Hbf Railway","regionorg":"Nord-Europa"},{"lng":-80.2906,"uwi":-5,"sostart":"2024-03-10T00:00:00+0100","nameshort":"Miami","uso":-4,"soend":"2024-11-03T00:00:00+0100","name":"Miami-International","icao":"KMIA","land":"United States","id":"MIA","region":"am","lat":25.7932,"regionorg":"Nord-Amerika II"},{"uso":1,"lng":10.7547,"uwi":1,"name":"Monastir-Habib Bourguiba International","icao":"DTMB","land":"Tunisia","id":"MIR","region":"af","nameshort":"Monastir","lat":35.7581,"regionorg":"Nord-Afrika"},{"uso":2,"uwi":1,"sostart":"2024-03-31T00:00:00+0100","soend":"2024-10-27T00:00:00+0200","name":"Muenster Main Station","icao":"","land":"Germany","id":"MKF","region":"de","nameshort":"Muenster Main St.","regionorg":"Nord-Europa"},{"lng":14.4775,"uwi":1,"sostart":"2024-03-31T00:00:00+0100","nameshort":"Malta","uso":2,"soend":"2024-10-27T00:00:00+0200","name":"Malta-International","icao":"LMML","land":"Malta","id":"MLA","region":"eu","lat":35.8575,"regionorg":"Süd-Europa"},{"uso":5,"lng":73.5291,"uwi":5,"name":"Male-Velana International","icao":"VRMM","land":"Maldives","id":"MLE","region":"as","nameshort":"Male-Velana","lat":4.1918,"regionorg":"Zentral-Asien"},{"lng":5.2214,"uwi":1,"sostart":"2024-03-31T00:00:00+0100","nameshort":"Marseille","uso":2,"soend":"2024-10-27T00:00:00+0200","name":"Marseille-Provence","icao":"LFML","land":"France","id":"MRS","region":"eu","lat":43.4393,"regionorg":"Süd-Europa"},{"uso":4,"lng":57.6836,"uwi":4,"name":"Mauritius-Sir S. Ramgoolam International","icao":"FIMP","land":"Mauritius","id":"MRU","region":"af","nameshort":"Mauritius","lat":-20.4302,"regionorg":"Süd-Afrika"},{"lng":-93.2218,"uwi":-6,"sostart":"2024-03-10T00:00:00+0100","nameshort":"Minneapolis","uso":-5,"soend":"2024-11-03T00:00:00+0100","name":"Minneapolis/St.Paul-International","icao":"KMSP","land":"United States","id":"MSP","region":"am","lat":44.882,"regionorg":"Nord-Amerika II"},{"lng":-100.107,"uwi":-6,"sostart":"2024-04-07T00:00:00+0200","nameshort":"Monterrey","uso":-5,"soend":"2024-10-27T00:00:00+0200","name":"Monterrey-General Mariano Escobedo Internatio","icao":"MMMY","land":"Mexico","id":"MTY","region":"am","lat":25.7785,"regionorg":"Mittel-Amerika"},{"lng":11.7861,"uwi":1,"sostart":"2024-03-31T00:00:00+0100","nameshort":"Munich","uso":2,"soend":"2024-10-27T00:00:00+0200","name":"Munich","icao":"EDDM","land":"Germany","id":"MUC","region":"de","lat":48.3538,"regionorg":"Nord-Europa"},{"uso":-3,"lng":-56.0308,"uwi":-3,"name":"Montevideo-Carrasco","icao":"SUMU","land":"Uruguay","id":"MVD","region":"am","nameshort":"Montevideo","lat":-34.8384,"regionorg":"Süd-Amerika"},{"lng":8.7281,"uwi":1,"sostart":"2024-03-31T00:00:00+0100","nameshort":"Milan-Malpensa","uso":2,"soend":"2024-10-27T00:00:00+0200","name":"Milan-Malpensa","icao":"LIMC","land":"Italy","id":"MXP","region":"eu","lat":45.6306,"regionorg":"Süd-Europa"},{"lng":14.2908,"uwi":1,"sostart":"2024-03-31T00:00:00+0100","nameshort":"Naples","uso":2,"soend":"2024-10-27T00:00:00+0200","name":"Naples-International","icao":"LIRN","land":"Italy","id":"NAP","region":"eu","lat":40.886,"regionorg":"Süd-Europa"},{"uso":3,"lng":36.9278,"uwi":3,"name":"Nairobi-Jomo Kenyatta International","icao":"HKJK","land":"Kenya","id":"NBO","region":"af","nameshort":"Nairobi","lat":-1.3192,"regionorg":"Ost-Afrika"},{"lng":7.2159,"uwi":1,"sostart":"2024-03-31T00:00:00+0100","nameshort":"Nice","uso":2,"soend":"2024-10-27T00:00:00+0200","name":"Nice Cote d'Azur","icao":"LFMN","land":"France","id":"NCE","region":"eu","lat":43.6584,"regionorg":"Süd-Europa"},{"lng":-1.6917,"uwi":0,"sostart":"2024-03-31T00:00:00+0100","nameshort":"Newcastle","uso":1,"soend":"2024-10-27T00:00:00+0200","name":"Newcastle-International","icao":"EGNT","land":"Great Britain","id":"NCL","region":"eu","lat":55.0375,"regionorg":"Nord-Europa"},{"lng":-99.0164,"uwi":-6,"sostart":"2024-04-07T00:00:00+0200","nameshort":"Felipe Angeles","uso":-5,"soend":"2024-10-27T00:00:00+0200","name":"Felipe Angeles International Airport","icao":"MMSM","land":"Mexico","id":"NLU","region":"am","lat":19.7553,"regionorg":"Mittel-Amerika"},{"uso":5,"lng":71.4669,"uwi":5,"name":"Astana Nur-Sultan Nasarbajew","icao":"UACC","land":"Kazakhstan","id":"NQZ","region":"eu","nameshort":"Astana","lat":51.0222,"regionorg":"Russland"},{"uso":9,"lng":140.386,"uwi":9,"name":"Tokyo-Narita International","icao":"RJAA","land":"Japan","id":"NRT","region":"as","nameshort":"Tokyo-Narita","lat":35.7653,"regionorg":"Ost-Asien"},{"lng":-1.6107,"uwi":1,"sostart":"2024-03-31T00:00:00+0100","nameshort":"Nantes","uso":2,"soend":"2024-10-27T00:00:00+0200","name":"Nantes-Atlantique","icao":"LFRS","land":"France","id":"NTE","region":"eu","lat":47.1532,"regionorg":"Süd-Europa"},{"lng":11.0781,"uwi":1,"sostart":"2024-03-31T00:00:00+0100","nameshort":"Nuremberg","uso":2,"soend":"2024-10-27T00:00:00+0200","name":"Nuremberg","icao":"EDDN","land":"Germany","id":"NUE","region":"de","lat":49.4987,"regionorg":"Nord-Europa"},{"lng":1.2828,"uwi":0,"sostart":"2024-03-31T00:00:00+0100","nameshort":"Norwich","uso":1,"soend":"2024-10-27T00:00:00+0200","name":"Norwich-International","icao":"EGSH","land":"Great Britain","id":"NWI","region":"eu","lat":52.6758,"regionorg":"Nord-Europa"},{"lng":9.5176,"uwi":1,"sostart":"2024-03-31T00:00:00+0100","nameshort":"Olbia","uso":2,"soend":"2024-10-27T00:00:00+0200","name":"Olbia-Costa Smeralda","icao":"LIEO","land":"Italy","id":"OLB","region":"eu","lat":40.8987,"regionorg":"Süd-Europa"},{"lng":17.8459,"uwi":1,"sostart":"2025-03-30T00:00:00+0100","nameshort":"Mostar","uso":2,"soend":"2025-10-26T00:00:00+0200","name":"Mostar-International","icao":"LQMO","land":"Bosnia and Herzegovina","id":"OMO","region":"eu","lat":43.2829,"regionorg":"Süd-Europa"},{"lng":-8.6781,"uwi":0,"sostart":"2024-03-31T00:00:00+0100","nameshort":"Porto","uso":1,"soend":"2024-10-27T00:00:00+0200","name":"Porto-Francisco Sa Carneiro","icao":"LPPR","land":"Portugal","id":"OPO","region":"eu","lat":41.2356,"regionorg":"Süd-Europa"},{"lng":-87.9047,"uwi":-6,"sostart":"2024-03-10T00:00:00+0100","nameshort":"Chicago-O Hare","uso":-5,"soend":"2024-11-03T00:00:00+0100","name":"Chicago-O'Hare International","icao":"KORD","land":"United States","id":"ORD","region":"am","lat":41.9786,"regionorg":"Nord-Amerika II"},{"lng":-8.4911,"uwi":0,"sostart":"2024-03-31T00:00:00+0100","nameshort":"Cork","uso":1,"soend":"2024-10-27T00:00:00+0200","name":"Cork","icao":"EICK","land":"Ireland","id":"ORK","region":"eu","lat":51.8413,"regionorg":"Nord-Europa"},{"lng":11.1004,"uwi":1,"sostart":"2024-03-31T00:00:00+0100","nameshort":"Oslo-Gardermoen","uso":2,"soend":"2024-10-27T00:00:00+0200","name":"Oslo-Gardermoen","icao":"ENGM","land":"Norway","id":"OSL","region":"eu","lat":60.1939,"regionorg":"Nord-Europa"},{"lng":18.1111,"uwi":1,"sostart":"2024-03-31T00:00:00+0100","nameshort":"Ostrava","uso":2,"soend":"2024-10-27T00:00:00+0200","name":"Ostrava-Leos Janacek","icao":"LKMT","land":"Czech Republic","id":"OSR","region":"eu","lat":49.6963,"regionorg":"Süd-Europa"},{"lng":26.085,"uwi":2,"sostart":"2024-03-31T00:00:00+0100","nameshort":"Bucharest","uso":3,"soend":"2024-10-27T00:00:00+0200","name":"Bucharest-Henri Coanda International","icao":"LROP","land":"Romania","id":"OTP","region":"eu","lat":44.5711,"regionorg":"Süd-Europa"},{"lng":25.3546,"uwi":2,"sostart":"2024-03-31T00:00:00+0100","nameshort":"Oulu","uso":3,"soend":"2024-10-27T00:00:00+0200","name":"Oulu","icao":"EFOU","land":"Finland","id":"OUL","region":"eu","lat":64.9301,"regionorg":"Nord-Europa"},{"lng":-6.0346,"uwi":1,"sostart":"2024-03-31T00:00:00+0100","nameshort":"Asturias","uso":2,"soend":"2024-10-27T00:00:00+0200","name":"Asturias","icao":"LEAS","land":"Spain","id":"OVD","region":"eu","lat":43.5636,"regionorg":"Süd-Europa"},{"lng":-122.282,"uwi":-8,"sostart":"2024-03-10T00:00:00+0100","nameshort":"Everett","uso":-7,"soend":"2024-11-03T00:00:00+0100","name":"Everett-Snohomish County","icao":"KPAE","land":"United States","id":"PAE","region":"am","lat":47.9063,"regionorg":"Nord-Amerika II"},{"lng":-25.6979,"uwi":-1,"sostart":"2024-03-31T00:00:00+0100","nameshort":"Ponta Delgada","uso":0,"soend":"2024-10-27T00:00:00+0200","name":"Ponta Delgada","icao":"LPPD","land":"Portugal","id":"PDL","region":"eu","lat":37.7412,"regionorg":"Süd-Europa"},{"uso":8,"lng":116.598,"uwi":8,"name":"Beijing-Capital International","icao":"ZBAA","land":"China","id":"PEK","region":"as","nameshort":"Beijing","lat":40.0725,"regionorg":"China"},{"uso":1,"lng":6.9496,"uwi":1,"name":"Port Harcourt-International","icao":"DNPO","land":"Nigeria","id":"PHC","region":"af","nameshort":"Port Harcourt","lat":5.0155,"regionorg":"Nord-Afrika"},{"lng":-75.2411,"uwi":-5,"sostart":"2024-03-10T00:00:00+0100","nameshort":"Philadelphia","uso":-4,"soend":"2024-11-03T00:00:00+0100","name":"Philadelphia-International","icao":"KPHL","land":"United States","id":"PHL","region":"am","lat":39.8719,"regionorg":"Nord-Amerika II"},{"lng":2.7388,"uwi":1,"sostart":"2024-03-31T00:00:00+0100","nameshort":"Palma de Mallorca","uso":2,"soend":"2024-10-27T00:00:00+0200","name":"Palma de Mallorca","icao":"LEPA","land":"Spain","id":"PMI","region":"eu","lat":39.5517,"regionorg":"Süd-Europa"},{"lng":13.091,"uwi":1,"sostart":"2024-03-31T00:00:00+0100","nameshort":"Palermo","uso":2,"soend":"2024-10-27T00:00:00+0200","name":"Palermo-Falcone Borsellino","icao":"LICJ","land":"Italy","id":"PMO","region":"eu","lat":38.176,"regionorg":"Süd-Europa"},{"uso":-4,"lng":-70.57,"uwi":-4,"name":"Puerto Plata-Gregorio Luperon International","icao":"MDPP","land":"Dominikan Republic","id":"POP","region":"am","nameshort":"Puerto Plata","lat":19.7579,"regionorg":"Mittel-Amerika"},{"lng":16.8263,"uwi":1,"sostart":"2024-03-31T00:00:00+0100","nameshort":"Poznan","uso":2,"soend":"2024-10-27T00:00:00+0200","name":"Poznan Lawica Henryk Wieniawski","icao":"EPPO","land":"Poland","id":"POZ","region":"eu","lat":52.421,"regionorg":"Nord-Europa"},{"uso":-10,"uwi":-10,"name":"Papeete-Faa International","icao":"NTTT","land":"French Polynesia","id":"PPT","region":"au","nameshort":"Papeete","regionorg":"Ozeanien II"},{"lng":14.26,"uwi":1,"sostart":"2024-03-31T00:00:00+0100","nameshort":"Prague","uso":2,"soend":"2024-10-27T00:00:00+0200","name":"Prague-Vaclav Havel","icao":"LKPR","land":"Czech Republic","id":"PRG","region":"eu","lat":50.1008,"regionorg":"Süd-Europa"},{"lng":21.0358,"uwi":1,"sostart":"2018-03-25T00:00:00+0100","nameshort":"Pristina","uso":2,"soend":"2018-10-28T00:00:00+0200","name":"Pristina-International","icao":"BKPR","land":"Kosovo","id":"PRN","region":"eu","lat":42.5728,"regionorg":"Süd-Europa"},{"lng":10.3927,"uwi":1,"sostart":"2024-03-31T00:00:00+0100","nameshort":"Pisa","uso":2,"soend":"2024-10-27T00:00:00+0200","name":"Pisa-Galileo Galilei International","icao":"LIRP","land":"Italy","id":"PSA","region":"eu","lat":43.6839,"regionorg":"Süd-Europa"},{"uso":-5,"lng":-79.3835,"uwi":-5,"name":"Panama City-Tocumen International","icao":"MPTO","land":"Panama","id":"PTY","region":"am","nameshort":"Panama City","lat":9.0714,"regionorg":"Mittel-Amerika"},{"uso":-4,"lng":-68.3634,"uwi":-4,"name":"Punta Cana","icao":"MDPC","land":"Dominikan Republic","id":"PUJ","region":"am","nameshort":"Punta Cana","lat":18.5674,"regionorg":"Mittel-Amerika"},{"lng":13.9222,"uwi":1,"sostart":"2024-03-31T00:00:00+0100","nameshort":"Pula","uso":2,"soend":"2024-10-27T00:00:00+0200","name":"Pula","icao":"LDPL","land":"Croatia","id":"PUY","region":"eu","lat":44.8935,"regionorg":"Süd-Europa"},{"uso":8,"lng":121.805,"uwi":8,"name":"Shanghai-Pudong International","icao":"ZSPD","land":"China","id":"PVG","region":"as","nameshort":"Shanghai-Pudong","lat":31.1434,"regionorg":"China"},{"lng":20.7653,"uwi":2,"sostart":"2024-03-31T00:00:00+0100","nameshort":"Preveza/Lefkada","uso":3,"soend":"2024-10-27T00:00:00+0200","name":"Preveza/Lefkada-Aktion","icao":"LGPZ","land":"Greece","id":"PVK","region":"eu","lat":38.9255,"regionorg":"Süd-Europa"},{"uso":2,"uwi":1,"sostart":"2024-03-31T00:00:00+0100","soend":"2024-10-27T00:00:00+0200","name":"Dusseldorf Railway Station","icao":"EDLQ","land":"Germany","id":"QDU","region":"de","nameshort":"Dusseldorf Main St.","regionorg":"Nord-Europa"},{"uso":2,"uwi":1,"sostart":"2024-03-31T00:00:00+0100","soend":"2024-10-27T00:00:00+0200","name":"Freiburg Hbf Railway Station","icao":"EDTF","land":"Germany","id":"QFB","region":"de","nameshort":"Freiburg Hbf Railway","regionorg":"Nord-Europa"},{"uso":2,"uwi":1,"sostart":"2024-03-31T00:00:00+0100","soend":"2024-10-27T00:00:00+0200","name":"Cologne Main Station","icao":"EDKK","land":"Germany","id":"QKL","region":"de","nameshort":"Cologne Main Station","regionorg":"Nord-Europa"},{"uso":2,"uwi":1,"sostart":"2024-03-31T00:00:00+0100","soend":"2024-10-27T00:00:00+0200","name":"Köln-Deutz Railway Station","icao":"","land":"Germany","id":"QKU","region":"de","nameshort":"Koeln-Deutz Station","regionorg":"Nord-Europa"},{"uso":8,"lng":103.91,"uwi":8,"name":"Paya Lebar-Air Base","icao":"WSAP","land":"Singapore","id":"QPG","region":"au","nameshort":"Paya Lebar","lat":1.3604,"regionorg":"Ozeanien III"},{"uso":2,"uwi":1,"sostart":"2024-03-31T00:00:00+0100","soend":"2024-10-27T00:00:00+0200","name":"Berlin Main Station","icao":"","land":"Germany","id":"QPP","region":"de","nameshort":"Berlin Main Station","regionorg":"Nord-Europa"},{"uso":2,"uwi":1,"sostart":"2024-03-31T00:00:00+0100","soend":"2024-10-27T00:00:00+0200","name":"Ulm Railway Station","icao":"ETGU","land":"Germany","id":"QUL","region":"de","nameshort":"Ulm Railway Station","regionorg":"Nord-Europa"},{"uso":2,"uwi":1,"sostart":"2024-03-31T00:00:00+0100","soend":"2024-10-27T00:00:00+0200","name":"Würzburg Central Station","icao":"","land":"Germany","id":"QWU","region":"de","nameshort":"Wuerzburg Central","regionorg":"Nord-Europa"},{"uso":2,"uwi":1,"sostart":"2024-03-31T00:00:00+0100","soend":"2024-10-27T00:00:00+0200","name":"La Perdiz-Torre De Juan Abad","icao":"LEIZ","land":"Spain","id":"QYI","region":"eu","nameshort":"La Perdiz","regionorg":"Süd-Europa"},{"uso":1,"lng":-8.0363,"uwi":1,"name":"Marrakech","icao":"GMMX","land":"Morocco","id":"RAK","region":"af","nameshort":"Marrakech","lat":31.6069,"regionorg":"West-Afrika"},{"lng":-78.7875,"uwi":-5,"sostart":"2024-03-10T00:00:00+0100","nameshort":"Raleigh/Durham","uso":-4,"soend":"2024-11-03T00:00:00+0100","name":"Raleigh/Durham-International","icao":"KRDU","land":"United States","id":"RDU","region":"am","lat":35.8776,"regionorg":"Nord-Amerika II"},{"lng":28.0862,"uwi":2,"sostart":"2024-03-31T00:00:00+0100","nameshort":"Rhodes","uso":3,"soend":"2024-10-27T00:00:00+0200","name":"Rhodes-Diagoras","icao":"LGRP","land":"Greece","id":"RHO","region":"eu","lat":36.4054,"regionorg":"Süd-Europa"},{"lng":23.9711,"uwi":2,"sostart":"2024-03-31T00:00:00+0100","nameshort":"Riga","uso":3,"soend":"2024-10-27T00:00:00+0200","name":"Riga-International","icao":"EVRA","land":"Latvia","id":"RIX","region":"eu","lat":56.9236,"regionorg":"Nord-Europa"},{"lng":14.5703,"uwi":1,"sostart":"2024-03-31T00:00:00+0100","nameshort":"Rijeka","uso":2,"soend":"2024-10-27T00:00:00+0200","name":"Rijeka","icao":"LDRI","land":"Croatia","id":"RJK","region":"eu","lat":45.2169,"regionorg":"Süd-Europa"},{"uso":2,"lng":34.5837,"uwi":2,"name":"Marsa Alam-International","icao":"HEMA","land":"Egypt","id":"RMF","region":"af","nameshort":"Marsa Alam","lat":25.5571,"regionorg":"Ost-Afrika"},{"lng":28.931,"uwi":2,"sostart":"2024-03-31T00:00:00+0100","nameshort":"Chisinau","uso":3,"soend":"2024-10-27T00:00:00+0200","name":"Chisinau-International","icao":"LUKK","land":"Moldova","id":"RMO","region":"eu","lat":46.9277,"regionorg":"Süd-Europa"},{"lng":-81.7552,"uwi":-5,"sostart":"2024-03-10T00:00:00+0100","nameshort":"Fort Myers","uso":-4,"soend":"2024-11-03T00:00:00+0100","name":"Fort Myers-Southwest Florida-International","icao":"KRSW","land":"United States","id":"RSW","region":"am","lat":26.5362,"regionorg":"Nord-Amerika II"},{"lng":4.4372,"uwi":1,"sostart":"2024-03-31T00:00:00+0100","nameshort":"Rotterdam","uso":2,"soend":"2024-10-27T00:00:00+0200","name":"Rotterdam-The Hague","icao":"EHRD","land":"Netherlands","id":"RTM","region":"eu","lat":51.9569,"regionorg":"Nord-Europa"},{"uso":3,"lng":46.6988,"uwi":3,"name":"Riyadh-King Khalid International","icao":"OERK","land":"Saudi Arabia","id":"RUH","region":"as","nameshort":"Riyadh","lat":24.9576,"regionorg":"Vorder-Asien"},{"lng":25.8304,"uwi":2,"sostart":"2024-03-31T00:00:00+0100","nameshort":"Rovaniemi","uso":3,"soend":"2024-10-27T00:00:00+0200","name":"Rovaniemi","icao":"EFRO","land":"Finland","id":"RVN","region":"eu","lat":66.5648,"regionorg":"Nord-Europa"},{"lng":22.019,"uwi":1,"sostart":"2024-03-31T00:00:00+0100","nameshort":"Rzeszow Jasionka","uso":2,"soend":"2024-10-27T00:00:00+0200","name":"Rzeszow Jasionka","icao":"EPRZ","land":"Poland","id":"RZE","region":"eu","lat":50.11,"regionorg":"Nord-Europa"},{"uso":3,"lng":29.3092,"uwi":3,"name":"Istanbul-Sabiha Gokcen","icao":"LTFJ","land":"Turkey","id":"SAW","region":"eu","nameshort":"Istanbul-Sabiha Gok.","lat":40.8986,"regionorg":"Süd-Europa"},{"lng":-117.235,"uwi":-8,"sostart":"2024-03-10T00:00:00+0100","nameshort":"San Bernardino","uso":-7,"soend":"2024-11-03T00:00:00+0100","name":"San Bernardino","icao":"KSBD","land":"United States","id":"SBD","region":"am","lat":34.0954,"regionorg":"Nord-Amerika II"},{"lng":-70.7856,"uwi":-4,"sostart":"2021-09-05T00:00:00+0200","nameshort":"Santiago de Chile","uso":-3,"soend":"2022-04-03T00:00:00+0200","name":"Santiago de Chile-Arturo Merino Bentitez Intl","icao":"SCEL","land":"Chile","id":"SCL","region":"am","lat":-33.3928,"regionorg":"Süd-Amerika"},{"lng":-8.4151,"uwi":1,"sostart":"2024-03-31T00:00:00+0100","nameshort":"Santiago Compostela","uso":2,"soend":"2024-10-27T00:00:00+0200","name":"Santiago Compostela","icao":"LEST","land":"Spain","id":"SCQ","region":"eu","lat":42.8963,"regionorg":"Süd-Europa"},{"uso":-4,"lng":-69.6689,"uwi":-4,"name":"Santo Domingo-Las Americas International","icao":"MDSD","land":"Dominikan Republic","id":"SDQ","region":"am","nameshort":"Santo Domingo","lat":18.4297,"regionorg":"Mittel-Amerika"},{"lng":-122.309,"uwi":-8,"sostart":"2024-03-10T00:00:00+0100","nameshort":"Seattle","uso":-7,"soend":"2024-11-03T00:00:00+0100","name":"Seattle-Tacoma International","icao":"KSEA","land":"United States","id":"SEA","region":"am","lat":47.449,"regionorg":"Nord-Amerika II"},{"uso":4,"lng":55.5218,"uwi":4,"name":"Mahe-Seychelles International","icao":"FSIA","land":"Seychelles","id":"SEZ","region":"af","nameshort":"Mahe","lat":-4.6743,"regionorg":"Süd-Afrika"},{"lng":-122.375,"uwi":-8,"sostart":"2024-03-10T00:00:00+0100","nameshort":"San Francisco","uso":-7,"soend":"2024-11-03T00:00:00+0100","name":"San Francisco-International","icao":"KSFO","land":"United States","id":"SFO","region":"am","lat":37.619,"regionorg":"Nord-Amerika II"},{"uso":7,"lng":106.652,"uwi":7,"name":"Ho Chi Minh City-Tan Son Nhat International","icao":"VVTS","land":"Vietnam","id":"SGN","region":"as","nameshort":"Ho Chi Minh City","lat":10.8188,"regionorg":"Zentral-Asien"},{"uso":8,"lng":123.483,"uwi":8,"name":"Shenyang-Taoxian International","icao":"ZYTX","land":"China","id":"SHE","region":"as","nameshort":"Shenyang","lat":41.6398,"regionorg":"China"},{"uso":-1,"lng":-22.9494,"uwi":-1,"name":"Sal-Amilcar Cabral International","icao":"GVAC","land":"Cape Verde","id":"SID","region":"af","nameshort":"Sal","lat":16.7414,"regionorg":"West-Afrika"},{"uso":8,"lng":103.994,"uwi":8,"name":"Singapore-Changi","icao":"WSSS","land":"Singapore","id":"SIN","region":"au","nameshort":"Singapore","lat":1.3502,"regionorg":"Ozeanien III"},{"lng":-109.721,"uwi":-7,"sostart":"2024-04-07T00:00:00+0200","nameshort":"San Jose del Cabo","uso":-6,"soend":"2024-10-27T00:00:00+0200","name":"San Jose del Cabo-Los Cabos International","icao":"MMSD","land":"Mexico","id":"SJD","region":"am","lat":23.1518,"regionorg":"Mittel-Amerika"},{"lng":18.3315,"uwi":1,"sostart":"2025-03-30T00:00:00+0100","nameshort":"Sarajevo","uso":2,"soend":"2025-10-26T00:00:00+0200","name":"Sarajevo-International","icao":"LQSA","land":"Bosnia and Herzegovina","id":"SJJ","region":"eu","lat":43.8246,"regionorg":"Süd-Europa"},{"uso":-6,"lng":-84.2088,"uwi":-6,"name":"San Jose Juan Santamaria","icao":"MROC","land":"Costa Rica","id":"SJO","region":"am","nameshort":"San Jose","lat":9.9939,"regionorg":"Mittel-Amerika"},{"lng":22.9709,"uwi":2,"sostart":"2024-03-31T00:00:00+0100","nameshort":"Thessaloniki","uso":3,"soend":"2024-10-27T00:00:00+0200","name":"Thessaloniki-Makedonia","icao":"LGTS","land":"Greece","id":"SKG","region":"eu","lat":40.5197,"regionorg":"Süd-Europa"},{"lng":21.6214,"uwi":1,"sostart":"2024-03-31T00:00:00+0100","nameshort":"Skopje International","uso":2,"soend":"2024-10-27T00:00:00+0200","name":"Skopje International","icao":"LWSK","land":"North Macedonia","id":"SKP","region":"eu","lat":41.9616,"regionorg":"Süd-Europa"},{"lng":26.9117,"uwi":2,"sostart":"2024-03-31T00:00:00+0100","nameshort":"Samos","uso":3,"soend":"2024-10-27T00:00:00+0200","name":"Samos-Aristarchos","icao":"LGSM","land":"Greece","id":"SMI","region":"eu","lat":37.69,"regionorg":"Süd-Europa"},{"lng":-8.9248,"uwi":0,"sostart":"2024-03-31T00:00:00+0100","nameshort":"Shannon","uso":1,"soend":"2024-10-27T00:00:00+0200","name":"Shannon","icao":"EINN","land":"Ireland","id":"SNN","region":"eu","lat":52.702,"regionorg":"Nord-Europa"},{"lng":23.4114,"uwi":2,"sostart":"2025-03-30T00:00:00+0100","nameshort":"Sofia","uso":3,"soend":"2025-10-26T00:00:00+0200","name":"Sofia","icao":"LBSF","land":"Bulgaria","id":"SOF","region":"eu","lat":42.6967,"regionorg":"Süd-Europa"},{"lng":-17.7556,"uwi":0,"sostart":"2024-03-31T00:00:00+0100","nameshort":"La Palma","uso":1,"soend":"2024-10-27T00:00:00+0200","name":"La Palma","icao":"GCLA","land":"Spain","id":"SPC","region":"eu","lat":28.6265,"regionorg":"Süd-Europa"},{"lng":16.298,"uwi":1,"sostart":"2024-03-31T00:00:00+0100","nameshort":"Split","uso":2,"soend":"2024-10-27T00:00:00+0200","name":"Split","icao":"LDSP","land":"Croatia","id":"SPU","region":"eu","lat":43.5389,"regionorg":"Süd-Europa"},{"uso":1,"lng":8.7087,"uwi":1,"name":"Malabo-International","icao":"FGSL","land":"Equatorial Guinea","id":"SSG","region":"af","nameshort":"Malabo","lat":3.7553,"regionorg":"Süd-Afrika"},{"uso":2,"lng":34.395,"uwi":2,"name":"Sharm El-Sheik International","icao":"HESH","land":"Egypt","id":"SSH","region":"af","nameshort":"Sharm El Sheik","lat":27.9773,"regionorg":"Ost-Afrika"},{"lng":-90.37,"uwi":-6,"sostart":"2024-03-10T00:00:00+0100","nameshort":"St. Louis","uso":-5,"soend":"2024-11-03T00:00:00+0100","name":"St. Louis-Lambert-St. Louis International","icao":"KSTL","land":"United States","id":"STL","region":"am","lat":38.7487,"regionorg":"Nord-Amerika II"},{"lng":0.235,"uwi":0,"sostart":"2024-03-31T00:00:00+0100","nameshort":"London-Stansted","uso":1,"soend":"2024-10-27T00:00:00+0200","name":"London-Stansted","icao":"EGSS","land":"Great Britain","id":"STN","region":"eu","lat":51.885,"regionorg":"Nord-Europa"},{"lng":9.222,"uwi":1,"sostart":"2024-03-31T00:00:00+0100","nameshort":"Stuttgart","uso":2,"soend":"2024-10-27T00:00:00+0200","name":"Stuttgart","icao":"EDDS","land":"Germany","id":"STR","region":"de","lat":48.6899,"regionorg":"Nord-Europa"},{"lng":16.2423,"uwi":1,"sostart":"2024-03-31T00:00:00+0100","nameshort":"Lamezia Terme","uso":2,"soend":"2024-10-27T00:00:00+0200","name":"Lamezia Terme","icao":"LICA","land":"Italy","id":"SUF","region":"eu","lat":38.9054,"regionorg":"Süd-Europa"},{"lng":5.6378,"uwi":1,"sostart":"2024-03-31T00:00:00+0100","nameshort":"Stavanger","uso":2,"soend":"2024-10-27T00:00:00+0200","name":"Stavanger-Sola","icao":"ENZV","land":"Norway","id":"SVG","region":"eu","lat":58.8767,"regionorg":"Nord-Europa"},{"lng":-5.8931,"uwi":1,"sostart":"2024-03-31T00:00:00+0100","nameshort":"Seville","uso":2,"soend":"2024-10-27T00:00:00+0200","name":"Seville","icao":"LEZL","land":"Spain","id":"SVQ","region":"eu","lat":37.418,"regionorg":"Süd-Europa"},{"lng":-74.1047,"uwi":-5,"sostart":"2024-03-10T00:00:00+0100","nameshort":"Newburgh-Stewart","uso":-4,"soend":"2024-11-03T00:00:00+0100","name":"Newburgh Stewart","icao":"KSWF","land":"United States","id":"SWF","region":"am","lat":41.5042,"regionorg":"Nord-Amerika II"},{"lng":7.6282,"uwi":1,"sostart":"2024-03-31T00:00:00+0100","nameshort":"Strasbourg","uso":2,"soend":"2024-10-27T00:00:00+0200","name":"Strasbourg-International","icao":"LFST","land":"France","id":"SXB","region":"eu","lat":48.5383,"regionorg":"Süd-Europa"},{"uso":8,"lng":109.412,"uwi":8,"name":"Sanya-Phoenix International","icao":"ZJSY","land":"China","id":"SYX","region":"as","nameshort":"Sanya-Phoenix","lat":18.3029,"regionorg":"China"},{"uso":3,"lng":36.5671,"uwi":3,"name":"Samsun-Carsamba","icao":"LTFH","land":"Turkey","id":"SZF","region":"eu","nameshort":"Samsun-Carsamba","lat":41.2545,"regionorg":"Süd-Europa"},{"lng":13.0043,"uwi":1,"sostart":"2025-03-30T00:00:00+0100","nameshort":"Salzburg","uso":2,"soend":"2025-10-26T00:00:00+0200","name":"Salzburg-W.A. Mozart","icao":"LOWS","land":"Austria","id":"SZG","region":"eu","lat":47.7933,"regionorg":"Süd-Europa"},{"uso":8,"lng":113.811,"uwi":8,"name":"Shenzhen-Baoan International","icao":"ZGSZ","land":"China","id":"SZX","region":"as","nameshort":"Shenzhen","lat":22.6393,"regionorg":"China"},{"uso":-4,"lng":-60.8322,"uwi":-4,"name":"Tobago-A.N.R. Robinson International","icao":"TTCP","land":"Trinidad and Tobago","id":"TAB","region":"am","nameshort":"Tobago","lat":11.1497,"regionorg":"Karibik"},{"uso":5,"uwi":5,"name":"Tashkent-International","icao":"UZTT","land":"Uzbekistan","id":"TAS","region":"eu","nameshort":"Tashkent","regionorg":"Russland"},{"uso":4,"lng":44.9547,"uwi":4,"name":"Tbilisi-International","icao":"UGTB","land":"Georgia","id":"TBS","region":"eu","nameshort":"Tbilisi","lat":41.6692,"regionorg":"Russland"},{"uso":1,"uwi":0,"sostart":"2024-03-31T00:00:00+0100","soend":"2024-10-27T00:00:00+0200","name":"Tenerife-Norte","icao":"GCXO","land":"Spain","id":"TFN","region":"eu","nameshort":"Tenerife-Norte","regionorg":"Süd-Europa"},{"lng":-16.5702,"uwi":0,"sostart":"2024-03-31T00:00:00+0100","nameshort":"Tenerife-Sur","uso":1,"soend":"2024-10-27T00:00:00+0200","name":"Tenerife-Sur","icao":"GCTS","land":"Spain","id":"TFS","region":"eu","lat":28.04,"regionorg":"Süd-Europa"},{"uso":8,"lng":104.445,"uwi":8,"name":"Chengdu Tianfu International","icao":"ZUTF","land":"China","id":"TFU","region":"as","nameshort":"Chengdu Tianfu","lat":30.319,"regionorg":"China"},{"lng":19.2519,"uwi":1,"sostart":"2024-03-31T00:00:00+0100","nameshort":"Podgorica","uso":2,"soend":"2024-10-27T00:00:00+0200","name":"Podgorica","icao":"LYPG","land":"Montenegro","id":"TGD","region":"eu","lat":42.3594,"regionorg":"Süd-Europa"},{"lng":19.7206,"uwi":1,"sostart":"2025-03-30T00:00:00+0100","nameshort":"Tirana","uso":2,"soend":"2025-10-26T00:00:00+0200","name":"Tirana-Nene Tereza International","icao":"LATI","land":"Albania","id":"TIA","region":"eu","lat":41.4147,"regionorg":"Süd-Europa"},{"lng":18.7233,"uwi":1,"sostart":"2024-03-31T00:00:00+0100","nameshort":"Tivat","uso":2,"soend":"2024-10-27T00:00:00+0200","name":"Tivat","icao":"LYTV","land":"Montenegro","id":"TIV","region":"eu","lat":42.4047,"regionorg":"Süd-Europa"},{"lng":24.8328,"uwi":2,"sostart":"2024-03-31T00:00:00+0100","nameshort":"Tallinn","uso":3,"soend":"2024-10-27T00:00:00+0200","name":"Tallinn-Lennart Meri","icao":"EETN","land":"Estonia","id":"TLL","region":"eu","lat":59.4133,"regionorg":"Nord-Europa"},{"lng":1.3638,"uwi":1,"sostart":"2024-03-31T00:00:00+0100","nameshort":"Toulouse-Blagnac","uso":2,"soend":"2024-10-27T00:00:00+0200","name":"Toulouse-Blagnac","icao":"LFBO","land":"France","id":"TLS","region":"eu","lat":43.6291,"regionorg":"Süd-Europa"},{"lng":34.8867,"uwi":2,"sostart":"2024-03-29T00:00:00+0100","nameshort":"Tel Aviv-Ben Gurion","uso":3,"soend":"2024-10-26T00:00:00+0200","name":"Tel Aviv-Ben Gurion","icao":"LLBG","land":"Israel","id":"TLV","region":"eu","lat":32.0114,"regionorg":"Süd-Europa"},{"lng":18.9189,"uwi":1,"sostart":"2024-03-31T00:00:00+0100","nameshort":"Tromso","uso":2,"soend":"2024-10-27T00:00:00+0200","name":"Tromso-Langnes","icao":"ENTC","land":"Norway","id":"TOS","region":"eu","lat":69.6833,"regionorg":"Nord-Europa"},{"lng":-82.5332,"uwi":-5,"sostart":"2024-03-10T00:00:00+0100","nameshort":"Tampa","uso":-4,"soend":"2024-11-03T00:00:00+0100","name":"Tampa","icao":"KTPA","land":"United States","id":"TPA","region":"am","lat":27.9755,"regionorg":"Nord-Amerika II"},{"uso":8,"lng":121.233,"uwi":8,"name":"Taipei-Taiwan Taoyuan International","icao":"RCTP","land":"Taiwan","id":"TPE","region":"as","nameshort":"Taipei","lat":25.0777,"regionorg":"Ost-Asien"},{"lng":7.6496,"uwi":1,"sostart":"2024-03-31T00:00:00+0100","nameshort":"Turin","uso":2,"soend":"2024-10-27T00:00:00+0200","name":"Turin-Caselle","icao":"LIMF","land":"Italy","id":"TRN","region":"eu","lat":45.2008,"regionorg":"Süd-Europa"},{"lng":13.4722,"uwi":1,"sostart":"2024-03-31T00:00:00+0100","nameshort":"Trieste","uso":2,"soend":"2024-10-27T00:00:00+0200","name":"Trieste-Friuli Venezia Giulia","icao":"LIPQ","land":"Italy","id":"TRS","region":"eu","lat":45.8275,"regionorg":"Süd-Europa"},{"uso":1,"lng":10.2272,"uwi":1,"name":"Tunis-Carthage","icao":"DTTA","land":"Tunisia","id":"TUN","region":"af","nameshort":"Tunis","lat":36.8511,"regionorg":"Nord-Afrika"},{"uso":3,"lng":39.7897,"uwi":3,"name":"Trabzon","icao":"LTCG","land":"Turkey","id":"TZX","region":"eu","nameshort":"Trabzon","lat":40.9951,"regionorg":"Süd-Europa"},{"uso":8,"lng":106.822,"uwi":8,"name":"New Ulaanbaatar International Airport","icao":"ZMCK","land":"Mongolia","id":"UBN","region":"as","nameshort":"New Ulaanbaatar","lat":47.6516,"regionorg":"China"},{"lng":-87.8679,"uwi":-6,"sostart":"2024-03-10T00:00:00+0100","nameshort":"Waukegan","uso":-5,"soend":"2024-11-03T00:00:00+0100","name":"Waukegan","icao":"KUGN","land":"United States","id":"UGN","region":"am","lat":42.4222,"regionorg":"Nord-Amerika II"},{"uso":5,"lng":51.5431,"uwi":5,"name":"Uralsk-Ak Zhol","icao":"UARR","land":"Kazakhstan","id":"URA","region":"eu","nameshort":"Uralsk","lat":51.1508,"regionorg":"Russland"},{"lng":27.8251,"uwi":2,"sostart":"2025-03-30T00:00:00+0100","nameshort":"Varna","uso":3,"soend":"2025-10-26T00:00:00+0200","name":"Varna","icao":"LBWN","land":"Bulgaria","id":"VAR","region":"eu","lat":43.2321,"regionorg":"Süd-Europa"},{"lng":12.3519,"uwi":1,"sostart":"2024-03-31T00:00:00+0100","nameshort":"Venice-Marco Polo","uso":2,"soend":"2024-10-27T00:00:00+0200","name":"Venice-Marco Polo","icao":"LIPZ","land":"Italy","id":"VCE","region":"eu","lat":45.5053,"regionorg":"Süd-Europa"},{"uso":-3,"lng":-47.1344,"uwi":-3,"name":"Sao Paulo-Viracopos International","icao":"SBKP","land":"Brazil","id":"VCP","region":"am","nameshort":"Sao Paulo-Viracopos","lat":-23.0081,"regionorg":"Süd-Amerika"},{"uso":2,"lng":25.839,"uwi":2,"name":"Victoria Falls","icao":"FVFA","land":"Zimbabwe","id":"VFA","region":"af","nameshort":"Victoria Falls","lat":-18.0959,"regionorg":"Süd-Afrika"},{"lng":16.5697,"uwi":1,"sostart":"2025-03-30T00:00:00+0100","nameshort":"Vienna","uso":2,"soend":"2025-10-26T00:00:00+0200","name":"Vienna","icao":"LOWW","land":"Austria","id":"VIE","region":"eu","lat":48.1103,"regionorg":"Süd-Europa"},{"lng":-0.4816,"uwi":1,"sostart":"2024-03-31T00:00:00+0100","nameshort":"Valencia","uso":2,"soend":"2024-10-27T00:00:00+0200","name":"Valencia","icao":"LEVC","land":"Spain","id":"VLC","region":"eu","lat":39.4893,"regionorg":"Süd-Europa"},{"lng":25.2858,"uwi":2,"sostart":"2024-03-31T00:00:00+0100","nameshort":"Vilnius","uso":3,"soend":"2024-10-27T00:00:00+0200","name":"Vilnius-International","icao":"EYVI","land":"Lithuania","id":"VNO","region":"eu","lat":54.6341,"regionorg":"Nord-Europa"},{"lng":10.8885,"uwi":1,"sostart":"2024-03-31T00:00:00+0100","nameshort":"Verona","uso":2,"soend":"2024-10-27T00:00:00+0200","name":"Verona-Villafranca","icao":"LIPX","land":"Italy","id":"VRN","region":"eu","lat":45.3957,"regionorg":"Süd-Europa"},{"lng":20.9671,"uwi":1,"sostart":"2024-03-31T00:00:00+0100","nameshort":"Warsaw","uso":2,"soend":"2024-10-27T00:00:00+0200","name":"Warsaw-Frederic Chopin","icao":"EPWA","land":"Poland","id":"WAW","region":"eu","lat":52.1657,"regionorg":"Nord-Europa"},{"uso":2,"lng":17.4709,"uwi":2,"name":"Windhoek-Hosea Kutako International","icao":"FYWH","land":"Namibia","id":"WDH","region":"af","nameshort":"Windhoek","lat":-22.4799,"regionorg":"Süd-Afrika"},{"lng":16.8858,"uwi":1,"sostart":"2024-03-31T00:00:00+0100","nameshort":"Wroclaw Copernicus","uso":2,"soend":"2024-10-27T00:00:00+0200","name":"Wroclaw Nicolaus Copernicus","icao":"EPWR","land":"Poland","id":"WRO","region":"eu","lat":51.1027,"regionorg":"Nord-Europa"},{"uso":2,"uwi":1,"sostart":"2024-03-31T00:00:00+0100","soend":"2024-10-27T00:00:00+0200","name":"Chalons-Vatry","icao":"LFOK","land":"France","id":"XCR","region":"eu","nameshort":"Chalons-Vatry","regionorg":"Süd-Europa"},{"uso":2,"uwi":1,"sostart":"2024-03-31T00:00:00+0100","soend":"2024-10-27T00:00:00+0200","name":"Strasbourg-Bus Station","icao":"LFSS","land":"France","id":"XER","region":"eu","nameshort":"Strasbourg-Bus St.","regionorg":"Süd-Europa"},{"uso":2,"uwi":1,"sostart":"2024-03-31T00:00:00+0100","soend":"2024-10-27T00:00:00+0200","name":"Aachen Central Station","icao":"","land":"Germany","id":"XHJ","region":"de","nameshort":"Aachen Central","regionorg":"Nord-Europa"},{"uso":2,"uwi":1,"sostart":"2024-03-31T00:00:00+0100","soend":"2024-10-27T00:00:00+0200","name":"Dresden Main Station","icao":"","land":"Germany","id":"XIR","region":"de","nameshort":"Dresden Main Station","regionorg":"Nord-Europa"},{"uso":2,"uwi":1,"sostart":"2024-03-31T00:00:00+0100","soend":"2024-10-27T00:00:00+0200","name":"Leipzig Central Station","icao":"","land":"Germany","id":"XIT","region":"de","nameshort":"Leipzig Central St.","regionorg":"Nord-Europa"},{"uso":2,"uwi":1,"sostart":"2024-03-31T00:00:00+0100","soend":"2024-10-27T00:00:00+0200","name":"Erfurt Hbf Railway Station","icao":"","land":"Germany","id":"XIU","region":"de","nameshort":"Erfurt Hbf Railway","regionorg":"Nord-Europa"},{"uso":8,"lng":118.128,"uwi":8,"name":"Xiamen-Gaoqi International","icao":"ZSAM","land":"China","id":"XMN","region":"as","nameshort":"Xiamen","lat":24.544,"regionorg":"China"},{"lng":-6.0601,"uwi":1,"sostart":"2024-03-31T00:00:00+0100","nameshort":"Jerez de la Frontera","uso":2,"soend":"2024-10-27T00:00:00+0200","name":"Jerez de la Frontera","icao":"LEJR","land":"Spain","id":"XRY","region":"eu","lat":36.7446,"regionorg":"Süd-Europa"},{"lng":-63.5086,"uwi":-4,"sostart":"2025-03-09T00:00:00+0100","nameshort":"Halifax","uso":-3,"soend":"2025-11-02T00:00:00+0100","name":"Halifax-Stanfield International","icao":"CYHZ","land":"Canada","id":"YHZ","region":"am","lat":44.8808,"regionorg":"Nord-Amerika I"},{"lng":-73.7455,"uwi":-5,"sostart":"2025-03-09T00:00:00+0100","nameshort":"Montreal","uso":-4,"soend":"2025-11-02T00:00:00+0100","name":"Montreal-Pierre Elliot Trudeau","icao":"CYUL","land":"Canada","id":"YUL","region":"am","lat":45.4657,"regionorg":"Nord-Amerika I"},{"lng":-123.184,"uwi":-8,"sostart":"2025-03-09T00:00:00+0100","nameshort":"Vancouver","uso":-7,"soend":"2025-11-02T00:00:00+0100","name":"Vancouver-International","icao":"CYVR","land":"Canada","id":"YVR","region":"am","lat":49.1939,"regionorg":"Nord-Amerika I"},{"lng":-114.02,"uwi":-7,"sostart":"2025-03-09T00:00:00+0100","nameshort":"Calgary","uso":-6,"soend":"2025-11-02T00:00:00+0100","name":"Calgary-International","icao":"CYYC","land":"Canada","id":"YYC","region":"am","lat":51.1139,"regionorg":"Nord-Amerika I"},{"lng":-79.6227,"uwi":-5,"sostart":"2025-03-09T00:00:00+0100","nameshort":"Toronto-Pearson","uso":-4,"soend":"2025-11-02T00:00:00+0100","name":"Toronto-Lester B.Pearson International","icao":"CYYZ","land":"Canada","id":"YYZ","region":"am","lat":43.6797,"regionorg":"Nord-Amerika I"},{"lng":15.3467,"uwi":1,"sostart":"2024-03-31T00:00:00+0100","nameshort":"Zadar","uso":2,"soend":"2024-10-27T00:00:00+0200","name":"Zadar","icao":"LDZD","land":"Croatia","id":"ZAD","region":"eu","lat":44.1083,"regionorg":"Süd-Europa"},{"lng":16.0688,"uwi":1,"sostart":"2024-03-31T00:00:00+0100","nameshort":"Zagreb","uso":2,"soend":"2024-10-27T00:00:00+0200","name":"Zagreb-Pleso","icao":"LDZA","land":"Croatia","id":"ZAG","region":"eu","lat":45.7429,"regionorg":"Süd-Europa"},{"uso":2,"uwi":1,"sostart":"2024-03-31T00:00:00+0100","soend":"2024-10-27T00:00:00+0200","name":"Nuremberg Railway Station","icao":"","land":"Germany","id":"ZAQ","region":"de","nameshort":"Nuremberg Hbf","regionorg":"Nord-Europa"},{"lng":-1.0416,"uwi":1,"sostart":"2024-03-31T00:00:00+0100","nameshort":"Zaragoza","uso":2,"soend":"2024-10-27T00:00:00+0200","name":"Zaragoza","icao":"LEZG","land":"Spain","id":"ZAZ","region":"eu","lat":41.6662,"regionorg":"Süd-Europa"},{"uso":2,"uwi":1,"sostart":"2024-03-31T00:00:00+0100","soend":"2024-10-27T00:00:00+0200","name":"Basel Bad Railway Station","icao":"","land":"Switzerland","id":"ZBA","region":"eu","nameshort":"Basel Bad Railway St","regionorg":"Süd-Europa"},{"uso":2,"uwi":1,"sostart":"2024-03-31T00:00:00+0100","soend":"2024-10-27T00:00:00+0200","name":"Göttingen Central Station","icao":"","land":"Germany","id":"ZEU","region":"de","nameshort":"Goettingen Central","regionorg":"Nord-Europa"},{"uso":2,"uwi":1,"sostart":"2024-03-31T00:00:00+0100","soend":"2024-10-27T00:00:00+0200","name":"Hamburg Central Railway Station","icao":"","land":"Germany","id":"ZMB","region":"de","nameshort":"Hamburg Central St.","regionorg":"Nord-Europa"},{"uso":2,"uwi":1,"sostart":"2024-03-31T00:00:00+0100","soend":"2024-10-27T00:00:00+0200","name":"Munich Central Railway Station","icao":"","land":"Germany","id":"ZMU","region":"de","nameshort":"Munich Central St.","regionorg":"Nord-Europa"},{"uso":3,"lng":39.2249,"uwi":3,"name":"Zanzibar-Abeid Amani Karume International","icao":"HTZA","land":"Tanzania","id":"ZNZ","region":"af","nameshort":"Zanzibar","lat":-6.222,"regionorg":"Ost-Afrika"},{"uso":2,"uwi":1,"sostart":"2024-03-31T00:00:00+0100","soend":"2024-10-27T00:00:00+0200","name":"Osnabrück Main Station","icao":"","land":"Germany","id":"ZPE","region":"de","nameshort":"Osnabrueck Main St.","regionorg":"Nord-Europa"},{"uso":2,"uwi":1,"sostart":"2024-03-31T00:00:00+0100","soend":"2024-10-27T00:00:00+0200","name":"Siegburg Central Railway Station","icao":"","land":"Germany","id":"ZPY","region":"de","nameshort":"Siegburg Central St.","regionorg":"Nord-Europa"},{"uso":2,"uwi":1,"sostart":"2024-03-31T00:00:00+0100","soend":"2024-10-27T00:00:00+0200","name":"Wolfsburg Central Station","icao":"","land":"Germany","id":"ZQU","region":"de","nameshort":"Wolfsburg Central","regionorg":"Nord-Europa"},{"lng":7.4006,"uwi":1,"sostart":"2024-03-31T00:00:00+0100","nameshort":"Zweibruecken","uso":2,"soend":"2024-10-27T00:00:00+0200","name":"Zweibruecken","icao":"EDRZ","land":"Germany","id":"ZQW","region":"de","lat":49.2094,"regionorg":"Nord-Europa"},{"lng":8.5492,"uwi":1,"sostart":"2024-03-31T00:00:00+0100","nameshort":"Zurich","uso":2,"soend":"2024-10-27T00:00:00+0200","name":"Zurich","icao":"LSZH","land":"Switzerland","id":"ZRH","region":"eu","lat":47.4647,"regionorg":"Süd-Europa"},{"lng":20.8843,"uwi":2,"sostart":"2024-03-31T00:00:00+0100","nameshort":"Zakinthos","uso":3,"soend":"2024-10-27T00:00:00+0200","name":"Zakinthos-Dionysios Solomos","icao":"LGZA","land":"Greece","id":"ZTH","region":"eu","lat":37.7509,"regionorg":"Süd-Europa"},{"uso":2,"uwi":1,"sostart":"2024-03-31T00:00:00+0100","soend":"2024-10-27T00:00:00+0200","name":"Hanover Central Railway Station","icao":"","land":"Germany","id":"ZVR","region":"de","nameshort":"Hanover Central St.","regionorg":"Nord-Europa"},{"uso":2,"uwi":1,"sostart":"2024-03-31T00:00:00+0100","soend":"2024-10-27T00:00:00+0200","name":"Stuttgart Railway Station","icao":"EDTQ","land":"Germany","id":"ZWS","region":"de","nameshort":"Stuttgart Railway","regionorg":"Nord-Europa"}],"lu":"2025-10-21T00:00:00+0200","version":"2.4.2"}